,zpid,homeType,homeStatus,dateSoldString,daysOnZillow,priceOutlier,price,streetAddress,zipcode,yearBuilt,bathrooms,bedrooms,livingAreaValue,livingAreaUnits,lotAreaValue,lotAreaUnits,zestimate,latitude,longitude,favoriteCount,pageViewCount,newConstructionType,resoFacts.associationFee,listingSubType.isForeclosure,resoFacts.isSeniorCommunity,resoFacts.propertySubType,hdpUrl,price/sqft
88,43370812,SINGLE_FAMILY,RECENTLY_SOLD,2024-01-19,26,0,220.0,3103 Highway 1,32754,1966,2.0,3.0,1386.0,Square Feet,20908.8,Square Feet,220300.0,28.68502,-80.85351,0.0,138.0,False,0.0,False,False,Single Family Residence,www.zillow.com/homedetails/3103-Highway-1-Mims-FL-32754/43370812_zpid/,0.15873015873015872
130,43397998,SINGLE_FAMILY,RECENTLY_SOLD,2024-01-10,35,0,5000.0,6882 Columbine Dr,32927,1989,1.0,2.0,920.0,Square Feet,7405.0,Square Feet,59300.0,28.442627,-80.76976,0.0,32.0,False,0.0,False,False,nan,www.zillow.com/homedetails/6882-Columbine-Dr-Cocoa-FL-32927/43397998_zpid/,5.434782608695652
639,54620168,SINGLE_FAMILY,RECENTLY_SOLD,2023-09-22,145,0,13500.0,1585 Painter St SE,32909,1984,1.0,2.0,926.0,Square Feet,10454.0,Square Feet,200100.0,27.958822,-80.626274,0.0,5.0,False,0.0,False,False,nan,www.zillow.com/homedetails/1585-Painter-St-SE-Palm-Bay-FL-32909/54620168_zpid/,14.578833693304535
516,43384714,SINGLE_FAMILY,RECENTLY_SOLD,2023-10-16,121,0,14000.0,3940 Capron Rd,32780,2000,1.5,3.0,1216.0,Square Feet,25700.0,Square Feet,14000.0,28.567936,-80.80475,0.0,4.0,False,0.0,False,False,nan,www.zillow.com/homedetails/3940-Capron-Rd-Titusville-FL-32780/43384714_zpid/,11.513157894736842
70,80769206,SINGLE_FAMILY,RECENTLY_SOLD,2024-01-25,20,0,14100.0,2836 Fitzpatrick Ave SW,32908,2006,2.0,3.0,2006.0,Square Feet,10018.0,Square Feet,207200.0,27.926256,-80.68094,2.0,26.0,False,0.0,False,False,nan,www.zillow.com/homedetails/2836-Fitzpatrick-Ave-SW-Palm-Bay-FL-32908/80769206_zpid/,7.028913260219342
179,54616188,SINGLE_FAMILY,RECENTLY_SOLD,2023-12-29,47,0,15000.0,504 Latania Palm Dr,32903,1978,2.0,4.0,2122.0,Square Feet,14810.0,Square Feet,807100.0,28.111067,-80.58138,0.0,45.0,False,0.0,False,False,nan,www.zillow.com/homedetails/504-Latania-Palm-Dr-Indialantic-FL-32903/54616188_zpid/,7.0688030160226205
277,43374641,SINGLE_FAMILY,RECENTLY_SOLD,2023-12-05,71,0,18500.0,940 Allendale St,32796,1964,2.0,3.0,1066.0,Square Feet,6098.4,Square Feet,18600.0,28.628153,-80.85908,0.0,13.0,False,0.0,False,False,Single Family Residence,www.zillow.com/homedetails/940-Allendale-St-Titusville-FL-32796/43374641_zpid/,17.354596622889307
338,43375457,SINGLE_FAMILY,RECENTLY_SOLD,2023-11-20,86,0,20000.0,2901 Cooper Dr,32796,1965,2.0,4.0,1646.0,Square Feet,12196.0,Square Feet,184200.0,28.627337,-80.83998,0.0,10.0,False,0.0,False,False,nan,www.zillow.com/homedetails/2901-Cooper-Dr-Titusville-FL-32796/43375457_zpid/,12.15066828675577
594,43508917,SINGLE_FAMILY,RECENTLY_SOLD,2023-09-29,138,0,20000.0,337 Santo Domingo Ave SW,32908,1985,2.0,2.0,816.0,Square Feet,11324.999999999998,Square Feet,208300.0,27.993261,-80.675514,0.0,25.0,False,0.0,False,False,nan,www.zillow.com/homedetails/337-Santo-Domingo-Ave-SW-Palm-Bay-FL-32908/43508917_zpid/,24.50980392156863
244,84637748,SINGLE_FAMILY,RECENTLY_SOLD,2023-12-13,63,0,23000.0,3330 Hield Rd,32904,1978,2.0,3.0,2992.0,Square Feet,507909.0,Square Feet,23000.0,28.040787,-80.67773,1.0,19.0,False,0.0,False,False,nan,www.zillow.com/homedetails/3330-Hield-Rd-Melbourne-FL-32904/84637748_zpid/,7.68716577540107
80,43525003,SINGLE_FAMILY,RECENTLY_SOLD,2024-01-23,22,0,26300.0,419 Egret Cir,32976,1971,2.0,2.0,759.0,Square Feet,4791.0,Square Feet,26300.0,27.883526,-80.509514,0.0,132.0,False,0.0,False,False,nan,www.zillow.com/homedetails/419-Egret-Cir-Barefoot-Bay-FL-32976/43525003_zpid/,34.65085638998683
368,54620406,SINGLE_FAMILY,RECENTLY_SOLD,2023-11-15,91,0,28600.0,3157 Westover Ave SE,32909,1994,2.0,3.0,1541.0,Square Feet,16116.999999999998,Square Feet,240600.0,27.91524,-80.654274,0.0,13.0,False,0.0,False,False,nan,www.zillow.com/homedetails/3157-Westover-Ave-SE-Palm-Bay-FL-32909/54620406_zpid/,18.55937702790396
309,104129613,SINGLE_FAMILY,RECENTLY_SOLD,2023-11-30,76,0,30700.0,640 Sauders Rd SE,32909,2023,2.0,3.0,1270.0,Square Feet,10890.0,Square Feet,308700.0,27.96189,-80.6583,0.0,6.0,False,0.0,False,False,Single Family Residence,www.zillow.com/homedetails/640-Sauders-Rd-SE-Palm-Bay-FL-32909/104129613_zpid/,24.173228346456693
279,43491347,SINGLE_FAMILY,RECENTLY_SOLD,2023-12-05,71,0,30900.0,508 Burr St,32901,1950,1.0,3.0,1190.0,Square Feet,3920.0,Square Feet,89600.0,28.069597,-80.61224,0.0,13.0,False,0.0,False,False,nan,www.zillow.com/homedetails/508-Burr-St-Melbourne-FL-32901/43491347_zpid/,25.96638655462185
200,66693734,SINGLE_FAMILY,RECENTLY_SOLD,2023-12-27,49,0,32200.0,492 Melanie Cir,32901,2004,2.0,3.0,1911.0,Square Feet,7840.0,Square Feet,329300.0,28.046642,-80.62962,0.0,7.0,False,0.0,False,False,nan,www.zillow.com/homedetails/492-Melanie-Cir-Melbourne-FL-32901/66693734_zpid/,16.84981684981685
398,80774668,SINGLE_FAMILY,RECENTLY_SOLD,2023-11-07,99,0,32500.0,700 Geddes St SW,32908,2006,2.0,4.0,2364.0,Square Feet,10018.0,Square Feet,319400.0,27.979555,-80.69019,0.0,10.0,False,0.0,False,False,nan,www.zillow.com/homedetails/700-Geddes-St-SW-Palm-Bay-FL-32908/80774668_zpid/,13.747884940778341
332,43384280,SINGLE_FAMILY,RECENTLY_SOLD,2023-11-21,85,0,34600.0,760 Forest Rd,32780,1963,2.0,3.0,1232.0,Square Feet,8276.0,Square Feet,212100.0,28.562307,-80.80963,0.0,7.0,False,0.0,False,False,nan,www.zillow.com/homedetails/760-Forest-Rd-Titusville-FL-32780/43384280_zpid/,28.084415584415584
159,43475470,SINGLE_FAMILY,RECENTLY_SOLD,2024-01-03,42,0,40000.0,101 Herring St,32901,1976,1.0,3.0,1022.0,Square Feet,14810.399999999996,Square Feet,40100.0,28.106327,-80.623184,0.0,11.0,False,0.0,False,False,Single Family Residence,www.zillow.com/homedetails/101-Herring-St-Melbourne-FL-32901/43475470_zpid/,39.13894324853229
616,43412094,SINGLE_FAMILY,RECENTLY_SOLD,2023-09-26,141,0,43100.0,113 Highland St,32922,1926,2.0,3.0,2040.0,Square Feet,16116.999999999998,Square Feet,231800.0,28.364002,-80.73314,0.0,13.0,False,0.0,False,False,nan,www.zillow.com/homedetails/113-Highland-St-Cocoa-FL-32922/43412094_zpid/,21.127450980392158
514,52958826,SINGLE_FAMILY,RECENTLY_SOLD,2023-10-17,120,0,43800.0,1089 Lindholm Pl,32935,1963,2.0,3.0,1326.0,Square Feet,8712.0,Square Feet,240900.0,28.138494,-80.65047,0.0,7.0,False,0.0,False,False,nan,www.zillow.com/homedetails/1089-Lindholm-Pl-Melbourne-FL-32935/52958826_zpid/,33.0316742081448
407,43412894,SINGLE_FAMILY,RECENTLY_SOLD,2023-11-03,103,0,44000.0,1106 Kirkland Dr,32922,1958,1.0,3.0,984.0,Square Feet,8276.0,Square Feet,146600.0,28.36673,-80.74454,0.0,3.0,False,0.0,False,False,nan,www.zillow.com/homedetails/1106-Kirkland-Dr-Cocoa-FL-32922/43412894_zpid/,44.71544715447155
606,43509396,SINGLE_FAMILY,RECENTLY_SOLD,2023-09-28,139,0,49300.0,473 Holin Ave SW,32908,1984,2.0,2.0,904.0,Square Feet,10018.0,Square Feet,210600.0,27.988853,-80.7037,0.0,5.0,False,0.0,False,False,nan,www.zillow.com/homedetails/473-Holin-Ave-SW-Palm-Bay-FL-32908/43509396_zpid/,54.5353982300885
533,43393904,SINGLE_FAMILY,RECENTLY_SOLD,2023-10-12,125,0,50000.0,6300 Arbor Ave,32927,1987,2.0,3.0,1290.0,Square Feet,10018.0,Square Feet,263900.0,28.46922,-80.78991,0.0,8.0,False,0.0,False,False,nan,www.zillow.com/homedetails/6300-Arbor-Ave-Cocoa-FL-32927/43393904_zpid/,38.75968992248062
526,43468706,SINGLE_FAMILY,RECENTLY_SOLD,2023-10-13,124,0,50000.0,2163 Shelby Dr,32935,1960,2.0,3.0,1060.0,Square Feet,6534.0,Square Feet,268500.0,28.130617,-80.656845,5.0,356.0,False,0.0,False,False,nan,www.zillow.com/homedetails/2163-Shelby-Dr-Melbourne-FL-32935/43468706_zpid/,47.16981132075472
476,43411405,SINGLE_FAMILY,RECENTLY_SOLD,2023-10-24,113,0,50000.0,63 Tennessee Ave,32953,1956,2.0,3.0,925.0,Square Feet,16551.999999999996,Square Feet,257500.0,28.362108,-80.698814,0.0,6.0,False,0.0,False,False,nan,www.zillow.com/homedetails/63-Tennessee-Ave-Merritt-Island-FL-32953/43411405_zpid/,54.054054054054056
507,43505294,SINGLE_FAMILY,RECENTLY_SOLD,2023-10-18,119,0,50000.0,218 Brandt Ave NE,32907,1978,2.0,3.0,1665.0,Square Feet,20037.0,Square Feet,317600.0,28.002443,-80.61675,0.0,7.0,False,0.0,False,False,nan,www.zillow.com/homedetails/218-Brandt-Ave-NE-Palm-Bay-FL-32907/43505294_zpid/,30.03003003003003
85,80777264,SINGLE_FAMILY,RECENTLY_SOLD,2024-01-22,23,0,50000.0,4121 Aiken Ln,32901,2006,2.0,4.0,1773.0,Square Feet,5662.0,Square Feet,50000.0,28.047626,-80.61017,1.0,41.0,False,0.0,False,False,nan,www.zillow.com/homedetails/4121-Aiken-Ln-Melbourne-FL-32901/80777264_zpid/,28.20078962210942
314,43477775,SINGLE_FAMILY,RECENTLY_SOLD,2023-11-29,77,0,52000.0,26 Annette Dr,32904,1974,2.0,3.0,1392.0,Square Feet,10890.0,Square Feet,52300.0,28.082085,-80.69199,0.0,9.0,False,0.0,False,False,nan,www.zillow.com/homedetails/26-Annette-Dr-Melbourne-FL-32904/43477775_zpid/,37.35632183908046
48,43371508,SINGLE_FAMILY,RECENTLY_SOLD,2024-01-30,15,0,55000.0,2559 Harry T Moore Ave,32754,1957,1.0,2.0,748.0,Square Feet,4791.0,Square Feet,97300.0,28.668121,-80.84019,0.0,26.0,False,0.0,False,False,nan,www.zillow.com/homedetails/2559-Harry-T-Moore-Ave-Mims-FL-32754/43371508_zpid/,73.52941176470588
225,52397126,SINGLE_FAMILY,RECENTLY_SOLD,2023-12-19,57,0,55400.0,145 Calico Ln,32903,2000,2.0,3.0,1927.0,Square Feet,3484.8,Square Feet,506800.0,28.133158,-80.584045,0.0,19.0,False,125.0,False,False,Single Family Residence,www.zillow.com/homedetails/145-Calico-Ln-Melbourne-FL-32903/52397126_zpid/,28.749351323300466
411,43508945,SINGLE_FAMILY,RECENTLY_SOLD,2023-11-03,103,0,58000.0,111 Tucson Rd SW,32908,1984,2.0,3.0,1104.0,Square Feet,10454.0,Square Feet,215500.0,27.99043,-80.6728,0.0,13.0,False,0.0,False,False,nan,www.zillow.com/homedetails/111-Tucson-Rd-SW-Palm-Bay-FL-32908/43508945_zpid/,52.53623188405797
485,43492036,SINGLE_FAMILY,RECENTLY_SOLD,2023-10-23,114,0,60000.0,3327 Henry St,32901,1981,2.0,3.0,1485.0,Square Feet,8276.0,Square Feet,200100.0,28.058638,-80.59738,0.0,13.0,False,0.0,False,False,nan,www.zillow.com/homedetails/3327-Henry-St-Melbourne-FL-32901/43492036_zpid/,40.4040404040404
457,54604159,SINGLE_FAMILY,RECENTLY_SOLD,2023-10-27,110,0,60000.0,213 A Ln,32926,1957,1.0,1.0,594.0,Square Feet,13939.0,Square Feet,60500.0,28.358856,-80.78883,0.0,7.0,False,0.0,False,False,nan,www.zillow.com/homedetails/213-A-Ln-Cocoa-FL-32926/54604159_zpid/,101.01010101010101
474,43399951,SINGLE_FAMILY,RECENTLY_SOLD,2023-10-24,113,0,61500.0,5101 Palmetto Ave,32926,1992,2.0,3.0,1937.0,Square Feet,43560.0,Square Feet,379200.0,28.410217,-80.82906,0.0,3.0,False,0.0,False,False,nan,www.zillow.com/homedetails/5101-Palmetto-Ave-Cocoa-FL-32926/43399951_zpid/,31.750129065565307
83,43376600,SINGLE_FAMILY,RECENTLY_SOLD,2024-01-22,23,0,62200.0,918 Wager Ave,32780,1953,1.0,3.0,864.0,Square Feet,12196.0,Square Feet,106800.0,28.604866,-80.81366,1.0,285.0,False,0.0,False,False,nan,www.zillow.com/homedetails/918-Wager-Ave-Titusville-FL-32780/43376600_zpid/,71.99074074074075
359,43414319,SINGLE_FAMILY,RECENTLY_SOLD,2023-11-15,91,0,64300.0,15 N Fiske Blvd,32922,1950,2.0,3.0,1112.0,Square Feet,9147.0,Square Feet,159800.0,28.358353,-80.74287,0.0,11.0,False,0.0,False,False,nan,www.zillow.com/homedetails/15-N-Fiske-Blvd-Cocoa-FL-32922/43414319_zpid/,57.82374100719424
267,54603839,SINGLE_FAMILY,RECENTLY_SOLD,2023-12-08,68,0,65000.0,6883 Aster Dr,32927,1974,2.0,3.0,1288.0,Square Feet,7405.0,Square Feet,65500.0,28.44216,-80.768425,0.0,15.0,False,0.0,False,False,nan,www.zillow.com/homedetails/6883-Aster-Dr-Cocoa-FL-32927/54603839_zpid/,50.46583850931677
554,43413589,SINGLE_FAMILY,RECENTLY_SOLD,2023-10-06,131,1,65000.0,1616 Terrace St,32922,1963,1.0,2.0,850.0,Square Feet,14810.0,Square Feet,65800.0,28.363802,-80.75625,0.0,9.0,False,0.0,False,False,nan,www.zillow.com/homedetails/1616-Terrace-St-Cocoa-FL-32922/43413589_zpid/,76.47058823529412
598,43372438,SINGLE_FAMILY,RECENTLY_SOLD,2023-09-28,139,0,67500.0,3200 Kirby Dr,32796,1964,1.0,2.0,864.0,Square Feet,9147.6,Square Feet,67500.0,28.648027,-80.8443,0.0,6.0,False,0.0,False,False,Single Family Residence,www.zillow.com/homedetails/3200-Kirby-Dr-Titusville-FL-32796/43372438_zpid/,78.125
545,43412543,SINGLE_FAMILY,RECENTLY_SOLD,2023-10-10,31,0,74000.0,1401 Cowart Rd,32922,1954,2.0,3.0,1367.0,Square Feet,10454.0,Square Feet,238300.0,28.364862,-80.75136,117.0,1082.0,False,0.0,False,False,Single Family Residence,www.zillow.com/homedetails/1401-Cowart-Rd-Cocoa-FL-32922/43412543_zpid/,54.13313825896123
55,54615931,SINGLE_FAMILY,RECENTLY_SOLD,2024-01-29,16,0,75000.0,1001 W Eau Gallie Blvd APT 203,32935,1980,1.5,1.0,828.0,Square Feet,2178.0,Square Feet,143200.0,28.127867,-80.634544,0.0,14.0,False,0.0,False,False,nan,www.zillow.com/homedetails/1001-W-Eau-Gallie-Blvd-APT-203-Melbourne-FL-32935/54615931_zpid/,90.57971014492753
460,43453443,SINGLE_FAMILY,RECENTLY_SOLD,2023-10-26,111,0,76900.0,3232 Cauthen Creek Dr,32934,1999,2.0,3.0,1500.0,Square Feet,5662.0,Square Feet,351400.0,28.16598,-80.67711,0.0,5.0,False,0.0,False,False,nan,www.zillow.com/homedetails/3232-Cauthen-Creek-Dr-Melbourne-FL-32934/43453443_zpid/,51.266666666666666
232,43412552,SINGLE_FAMILY,RECENTLY_SOLD,2023-12-15,61,0,77000.0,1425 Wilson Rd,32922,1957,1.0,3.0,1000.0,Square Feet,10454.4,Square Feet,77300.0,28.365566,-80.75228,0.0,25.0,False,0.0,False,False,Single Family Residence,www.zillow.com/homedetails/1425-Wilson-Rd-Cocoa-FL-32922/43412552_zpid/,77.0
61,43477589,SINGLE_FAMILY,RECENTLY_SOLD,2024-01-26,19,0,78000.0,2295 Wood St,32904,1959,1.0,1.0,520.0,Square Feet,6969.0,Square Feet,40700.0,28.07313,-80.68582,0.0,9.0,False,0.0,False,False,nan,www.zillow.com/homedetails/2295-Wood-St-Melbourne-FL-32904/43477589_zpid/,150.0
56,84635341,SINGLE_FAMILY,RECENTLY_SOLD,2024-01-29,16,1,80000.0,2241 Angel Rd SE,32909,2007,3.0,3.0,2272.0,Square Feet,10018.0,Square Feet,336000.0,27.939253,-80.62813,0.0,14.0,False,0.0,False,False,nan,www.zillow.com/homedetails/2241-Angel-Rd-SE-Palm-Bay-FL-32909/84635341_zpid/,35.2112676056338
354,43525278,SINGLE_FAMILY,RECENTLY_SOLD,2023-11-17,89,0,80000.0,924 Laurel Cir,32976,1980,2.0,2.0,784.0,Square Feet,3998.0,Square Feet,80500.0,27.881044,-80.524605,1.0,15.0,False,0.0,False,False,nan,www.zillow.com/homedetails/924-Laurel-Cir-Barefoot-Bay-FL-32976/43525278_zpid/,102.04081632653062
33,43370911,SINGLE_FAMILY,RECENTLY_SOLD,2024-02-01,13,0,80000.0,3530 Kelly Rd,32754,1957,2.0,3.0,1191.0,Square Feet,6969.0,Square Feet,167400.0,28.67457,-80.85319,0.0,16.0,False,0.0,False,False,nan,www.zillow.com/homedetails/3530-Kelly-Rd-Mims-FL-32754/43370911_zpid/,67.17044500419816
546,43414940,SINGLE_FAMILY,RECENTLY_SOLD,2023-10-09,128,0,85000.0,304 Washington St,32922,1960,2.0,3.0,1552.0,Square Feet,8712.0,Square Feet,211000.0,28.353483,-80.734184,0.0,22.0,False,0.0,False,False,nan,www.zillow.com/homedetails/304-Washington-St-Cocoa-FL-32922/43414940_zpid/,54.7680412371134
1,2070477473,SINGLE_FAMILY,RECENTLY_SOLD,2024-02-15,1,0,85000.0,145 Ruth Ave,32922,1964,1.0,2.0,1140.0,Square Feet,10454.4,Square Feet,117400.0,28.353632,-80.750404,41.0,749.0,False,0.0,False,False,Single Family Residence,www.zillow.com/homedetails/145-Ruth-Ave-Cocoa-FL-32922/2070477473_zpid/,74.56140350877193
34,43376284,SINGLE_FAMILY,RECENTLY_SOLD,2024-02-01,13,0,85000.0,1011 English St,32796,1958,1.0,2.0,1072.0,Square Feet,7840.0,Square Feet,183600.0,28.617062,-80.815346,0.0,30.0,False,0.0,False,False,nan,www.zillow.com/homedetails/1011-English-St-Titusville-FL-32796/43376284_zpid/,79.2910447761194
402,54601865,SINGLE_FAMILY,RECENTLY_SOLD,2023-11-06,100,0,85500.0,1755 Tonya Ln,32796,1966,2.0,4.0,1227.0,Square Feet,12196.799999999996,Square Feet,98300.0,28.645144,-80.84518,0.0,14.0,False,0.0,False,False,Single Family Residence,www.zillow.com/homedetails/1755-Tonya-Ln-Titusville-FL-32796/54601865_zpid/,69.68215158924205
287,61176292,SINGLE_FAMILY,RECENTLY_SOLD,2023-12-04,72,1,86700.0,296 Barrymore Dr,32955,2003,2.5,4.0,2416.0,Square Feet,8712.0,Square Feet,496900.0,28.300055,-80.710815,0.0,16.0,False,0.0,False,False,nan,www.zillow.com/homedetails/296-Barrymore-Dr-Rockledge-FL-32955/61176292_zpid/,35.88576158940398
27,43402661,SINGLE_FAMILY,RECENTLY_SOLD,2024-02-02,12,0,89500.0,5300 Lake Poinsett Rd,32926,1959,1.0,1.0,688.0,Square Feet,137649.0,Square Feet,213000.0,28.35527,-80.80801,0.0,1.0,False,0.0,False,False,nan,www.zillow.com/homedetails/5300-Lake-Poinsett-Rd-Cocoa-FL-32926/43402661_zpid/,130.0872093023256
255,43475941,SINGLE_FAMILY,RECENTLY_SOLD,2023-12-11,65,0,94000.0,616 Wisteria Dr,32901,1956,1.0,3.0,936.0,Square Feet,8276.0,Square Feet,179400.0,28.098305,-80.61915,0.0,22.0,False,0.0,False,False,nan,www.zillow.com/homedetails/616-Wisteria-Dr-Melbourne-FL-32901/43475941_zpid/,100.42735042735043
366,54604181,SINGLE_FAMILY,RECENTLY_SOLD,2023-11-15,9,0,95000.0,515 A Ln,32926,1964,2.0,6.0,1978.0,Square Feet,6098.4,Square Feet,280300.0,28.353512,-80.78882,53.0,657.0,False,0.0,False,False,Single Family Residence,www.zillow.com/homedetails/515-A-Ln-Cocoa-FL-32926/54604181_zpid/,48.02831142568251
520,43457607,SINGLE_FAMILY,RECENTLY_SOLD,2023-10-16,121,0,100000.0,7808 Shadowood Dr APT 807,32904,1984,3.0,2.0,1216.0,Square Feet,3920.0,Square Feet,227400.0,28.0944,-80.68406,0.0,16.0,False,0.0,False,False,nan,www.zillow.com/homedetails/7808-Shadowood-Dr-APT-807-West-Melbourne-FL-32904/43457607_zpid/,82.23684210526316
293,43428230,SINGLE_FAMILY,RECENTLY_SOLD,2023-12-01,75,1,100000.0,985 Beacon Rd,32955,1964,2.0,4.0,1310.0,Square Feet,8276.0,Square Feet,100600.0,28.318436,-80.74087,0.0,11.0,False,0.0,False,False,nan,www.zillow.com/homedetails/985-Beacon-Rd-Rockledge-FL-32955/43428230_zpid/,76.33587786259542
439,43376696,SINGLE_FAMILY,RECENTLY_SOLD,2023-10-30,107,0,100000.0,717 Booker St,32780,1961,2.0,3.0,2018.0,Square Feet,10018.0,Square Feet,100800.0,28.602013,-80.81183,0.0,7.0,False,0.0,False,False,nan,www.zillow.com/homedetails/717-Booker-St-Titusville-FL-32780/43376696_zpid/,49.554013875123886
71,43407021,SINGLE_FAMILY,RECENTLY_SOLD,2024-01-24,21,0,100000.0,2111 Otterbein Ave,32926,1968,1.0,3.0,1081.0,Square Feet,7405.2,Square Feet,138000.0,28.395378,-80.76127,7.0,217.0,False,0.0,False,False,Single Family Residence,www.zillow.com/homedetails/2111-Otterbein-Ave-Cocoa-FL-32926/43407021_zpid/,92.50693802035153
441,43397126,SINGLE_FAMILY,RECENTLY_SOLD,2023-10-30,107,0,100000.0,5795 Broad Acres St,32953,1968,2.0,2.0,748.0,Square Feet,41382.0,Square Feet,231800.0,28.46176,-80.67707,0.0,15.0,False,0.0,False,False,nan,www.zillow.com/homedetails/5795-Broad-Acres-St-Merritt-Island-FL-32953/43397126_zpid/,133.6898395721925
391,299494692,SINGLE_FAMILY,RECENTLY_SOLD,2023-11-08,98,0,100000.0,4525 N Us Highway 1,32935,1957,1.0,3.0,1645.0,Square Feet,14810.0,Square Feet,191600.0,28.180637,-80.65095,0.0,2.0,False,0.0,False,False,nan,www.zillow.com/homedetails/4525-N-Us-Highway-1-Melbourne-FL-32935/299494692_zpid/,60.790273556231
186,43468077,SINGLE_FAMILY,RECENTLY_SOLD,2023-12-28,48,1,100100.0,424 Linda Ln,32935,1960,2.0,2.0,1632.0,Square Feet,13068.0,Square Feet,212800.0,28.136791,-80.657936,1.0,33.0,False,0.0,False,False,nan,www.zillow.com/homedetails/424-Linda-Ln-Melbourne-FL-32935/43468077_zpid/,61.33578431372549
382,43371362,SINGLE_FAMILY,RECENTLY_SOLD,2023-11-09,97,0,102000.0,3330 Stanley St,32754,1957,1.0,2.0,864.0,Square Feet,5662.8,Square Feet,124800.0,28.666931,-80.84737,0.0,9.0,False,0.0,False,False,Single Family Residence,www.zillow.com/homedetails/3330-Stanley-St-Mims-FL-32754/43371362_zpid/,118.05555555555556
149,43470725,SINGLE_FAMILY,RECENTLY_SOLD,2024-01-05,40,0,102500.0,574 Clarke Ave,32935,1968,2.0,4.0,1384.0,Square Feet,6534.0,Square Feet,230800.0,28.116236,-80.659065,0.0,46.0,False,0.0,False,False,nan,www.zillow.com/homedetails/574-Clarke-Ave-Melbourne-FL-32935/43470725_zpid/,74.0606936416185
531,54607614,SINGLE_FAMILY,RECENTLY_SOLD,2023-10-13,124,0,105000.0,560 Gateway Dr,32952,1966,2.0,3.0,1448.0,Square Feet,10018.0,Square Feet,342100.0,28.347475,-80.66541,0.0,11.0,False,0.0,False,False,nan,www.zillow.com/homedetails/560-Gateway-Dr-Merritt-Island-FL-32952/54607614_zpid/,72.51381215469613
114,43371945,SINGLE_FAMILY,RECENTLY_SOLD,2024-01-12,33,0,105000.0,2141 Trieste Dr,32754,1982,1.0,3.0,984.0,Square Feet,9147.0,Square Feet,105200.0,28.657145,-80.8641,0.0,24.0,False,0.0,False,False,nan,www.zillow.com/homedetails/2141-Trieste-Dr-Mims-FL-32754/43371945_zpid/,106.70731707317073
218,43395602,SINGLE_FAMILY,RECENTLY_SOLD,2023-12-20,56,0,105000.0,6260 Marcy St,32927,1981,2.0,3.0,1530.0,Square Feet,10018.0,Square Feet,105700.0,28.46849,-80.78748,0.0,37.0,False,0.0,False,False,nan,www.zillow.com/homedetails/6260-Marcy-St-Cocoa-FL-32927/43395602_zpid/,68.62745098039215
557,43491373,SINGLE_FAMILY,RECENTLY_SOLD,2023-10-06,41,0,105000.0,610 Walker St,32901,1959,1.0,3.0,832.0,Square Feet,4791.6,Square Feet,174000.0,28.065056,-80.610275,75.0,1596.0,False,0.0,False,False,Single Family Residence,www.zillow.com/homedetails/610-Walker-St-Melbourne-FL-32901/43491373_zpid/,126.20192307692308
82,66694251,SINGLE_FAMILY,RECENTLY_SOLD,2024-01-23,22,0,105100.0,855 Atz Rd,32950,2004,3.0,3.0,3010.0,Square Feet,88861.99999999999,Square Feet,237600.0,27.983166,-80.605415,2.0,186.0,False,0.0,False,False,nan,www.zillow.com/homedetails/855-Atz-Rd-Malabar-FL-32950/66694251_zpid/,34.91694352159468
642,43495278,SINGLE_FAMILY,RECENTLY_SOLD,2023-09-21,146,0,108000.0,1482 Riviera Dr NE,32905,1974,2.0,3.0,1008.0,Square Feet,12631.999999999998,Square Feet,259200.0,28.029654,-80.63143,0.0,6.0,False,0.0,False,False,nan,www.zillow.com/homedetails/1482-Riviera-Dr-NE-Palm-Bay-FL-32905/43495278_zpid/,107.14285714285714
339,43395060,SINGLE_FAMILY,RECENTLY_SOLD,2023-11-20,86,1,109000.0,5988 Cedar Lake Dr,32927,1985,1.0,2.0,924.0,Square Feet,28314.0,Square Feet,97600.0,28.464577,-80.77329,0.0,5.0,False,0.0,False,False,Single Family Residence,www.zillow.com/homedetails/5988-Cedar-Lake-Dr-Cocoa-FL-32927/43395060_zpid/,117.96536796536796
571,43404595,SINGLE_FAMILY,RECENTLY_SOLD,2023-10-04,62,0,109900.0,132 Vanguard Cir,32926,1986,2.0,2.0,900.0,Square Feet,7405.0,Square Feet,204200.0,28.413263,-80.75756,20.0,321.0,False,0.0,False,False,nan,www.zillow.com/homedetails/132-Vanguard-Cir-Cocoa-FL-32926/43404595_zpid/,122.11111111111111
147,43402436,SINGLE_FAMILY,RECENTLY_SOLD,2024-01-05,40,1,110000.0,2516 Stratford Dr,32926,1961,1.5,3.0,1036.0,Square Feet,7405.0,Square Feet,142000.0,28.364294,-80.77367,0.0,12.0,False,0.0,False,False,nan,www.zillow.com/homedetails/2516-Stratford-Dr-Cocoa-FL-32926/43402436_zpid/,106.17760617760618
235,43493026,SINGLE_FAMILY,RECENTLY_SOLD,2023-12-15,61,0,111000.0,2584 Southover Dr NE,32905,1964,1.0,3.0,768.0,Square Feet,7405.2,Square Feet,111000.0,28.047476,-80.593956,3.0,39.0,False,0.0,False,False,Single Family Residence,www.zillow.com/homedetails/2584-Southover-Dr-NE-Palm-Bay-FL-32905/43493026_zpid/,144.53125
92,43408071,SINGLE_FAMILY,RECENTLY_SOLD,2024-01-19,26,0,113000.0,1703 Cambridge Dr,32922,1959,2.0,3.0,968.0,Square Feet,417435480.0,Square Feet,97800.0,28.380558,-80.75069,1.0,73.0,False,0.0,False,False,Single Family Residence,www.zillow.com/homedetails/1703-Cambridge-Dr-Cocoa-FL-32922/43408071_zpid/,116.73553719008264
611,43414842,SINGLE_FAMILY,RECENTLY_SOLD,2023-09-27,69,0,115000.0,500 S Fiske Blvd,32922,1955,1.0,2.0,934.0,Square Feet,7405.2,Square Feet,185700.0,28.352842,-80.742134,97.0,1281.0,False,0.0,False,False,Single Family Residence,www.zillow.com/homedetails/500-S-Fiske-Blvd-Cocoa-FL-32922/43414842_zpid/,123.12633832976445
548,43480317,SINGLE_FAMILY,RECENTLY_SOLD,2023-10-09,128,0,115000.0,1340 Jarvis St NW,32907,1987,2.0,3.0,1480.0,Square Feet,10454.0,Square Feet,287900.0,28.029161,-80.70929,0.0,9.0,False,0.0,False,False,nan,www.zillow.com/homedetails/1340-Jarvis-St-NW-Palm-Bay-FL-32907/43480317_zpid/,77.70270270270271
210,43424880,SINGLE_FAMILY,RECENTLY_SOLD,2023-12-21,55,0,118000.0,1276 Emma Dr,32952,1954,1.0,3.0,1485.0,Square Feet,7405.0,Square Feet,150300.0,28.335045,-80.69133,0.0,7.0,False,0.0,False,False,nan,www.zillow.com/homedetails/1276-Emma-Dr-Merritt-Island-FL-32952/43424880_zpid/,79.46127946127946
597,153572922,SINGLE_FAMILY,RECENTLY_SOLD,2023-09-29,138,0,118000.0,2578 Mitchell Ave,32754,1964,1.0,3.0,792.0,Square Feet,11324.999999999998,Square Feet,117100.0,28.668795,-80.84416,0.0,15.0,False,0.0,False,False,nan,www.zillow.com/homedetails/2578-Mitchell-Ave-Mims-FL-32754/153572922_zpid/,148.989898989899
193,43372360,SINGLE_FAMILY,RECENTLY_SOLD,2023-12-27,49,0,120000.0,1760 Cowan Dr,32796,1961,2.0,3.0,1034.0,Square Feet,9147.0,Square Feet,194500.0,28.645054,-80.84257,0.0,6.0,False,0.0,False,False,nan,www.zillow.com/homedetails/1760-Cowan-Dr-Titusville-FL-32796/43372360_zpid/,116.0541586073501
307,54602086,SINGLE_FAMILY,RECENTLY_SOLD,2023-11-30,76,1,120000.0,1015 2nd Ave,32780,1963,2.0,4.0,1195.0,Square Feet,5227.0,Square Feet,121000.0,28.604647,-80.81129,1.0,27.0,False,0.0,False,False,Single Family Residence,www.zillow.com/homedetails/1015-2nd-Ave-Titusville-FL-32780/54602086_zpid/,100.418410041841
501,43476866,SINGLE_FAMILY,RECENTLY_SOLD,2023-10-19,118,0,120000.0,300 Seabreeze Dr,32903,1979,2.0,3.0,1710.0,Square Feet,7405.0,Square Feet,519000.0,28.097237,-80.5709,0.0,13.0,False,0.0,False,False,nan,www.zillow.com/homedetails/300-Seabreeze-Dr-Indialantic-FL-32903/43476866_zpid/,70.17543859649123
167,43383537,SINGLE_FAMILY,RECENTLY_SOLD,2023-12-29,47,0,120000.0,4430 Byron Ave,32780,1962,1.0,2.0,903.0,Square Feet,51749280.0,Square Feet,120400.0,28.55981,-80.82976,0.0,7.0,False,0.0,False,False,Single Family Residence,www.zillow.com/homedetails/4430-Byron-Ave-Titusville-FL-32780/43383537_zpid/,132.89036544850498
248,43497775,SINGLE_FAMILY,RECENTLY_SOLD,2023-12-12,64,0,120000.0,2737 Elm Dr NE,32905,1966,2.0,3.0,1718.0,Square Feet,12631.999999999998,Square Feet,248300.0,28.018932,-80.588776,0.0,16.0,False,0.0,False,False,nan,www.zillow.com/homedetails/2737-Elm-Dr-NE-Palm-Bay-FL-32905/43497775_zpid/,69.84866123399301
23,43476062,SINGLE_FAMILY,RECENTLY_SOLD,2024-02-05,9,0,120000.0,904 Wisteria Dr,32901,1956,1.5,3.0,1100.0,Square Feet,8276.0,Square Feet,203800.0,28.09406,-80.61498,0.0,0.0,False,0.0,False,False,nan,www.zillow.com/homedetails/904-Wisteria-Dr-Melbourne-FL-32901/43476062_zpid/,109.0909090909091
490,43376369,SINGLE_FAMILY,RECENTLY_SOLD,2023-10-20,8,0,120150.0,203 N De Leon Ave,32796,1958,1.0,3.0,1074.0,Square Feet,6970.0,Square Feet,241100.0,28.617538,-80.81449,29.0,421.0,False,0.0,False,False,Single Family Residence,www.zillow.com/homedetails/203-N-De-Leon-Ave-Titusville-FL-32796/43376369_zpid/,111.87150837988827
303,43472737,SINGLE_FAMILY,RECENTLY_SOLD,2023-11-30,76,0,120300.0,539 Poinciana Ct,32935,1951,1.0,3.0,982.0,Square Feet,10890.0,Square Feet,213000.0,28.115967,-80.62485,0.0,15.0,False,0.0,False,False,nan,www.zillow.com/homedetails/539-Poinciana-Ct-Melbourne-FL-32935/43472737_zpid/,122.5050916496945
175,43492443,SINGLE_FAMILY,RECENTLY_SOLD,2023-12-29,47,0,122500.0,2264 Washington St NE,32905,1964,1.0,2.0,676.0,Square Feet,6969.0,Square Feet,177000.0,28.05578,-80.59904,0.0,19.0,False,0.0,False,False,nan,www.zillow.com/homedetails/2264-Washington-St-NE-Palm-Bay-FL-32905/43492443_zpid/,181.2130177514793
229,54608360,SINGLE_FAMILY,RECENTLY_SOLD,2023-12-18,58,0,123500.0,1415 Hagen Ln,32955,1966,2.0,3.0,2007.0,Square Feet,8712.0,Square Feet,124100.0,28.332792,-80.73991,0.0,13.0,False,0.0,False,False,nan,www.zillow.com/homedetails/1415-Hagen-Ln-Rockledge-FL-32955/54608360_zpid/,61.53462879920279
205,43370877,SINGLE_FAMILY,RECENTLY_SOLD,2023-12-22,54,0,125000.0,2957 Hartman Ln,32754,1958,1.0,3.0,768.0,Square Feet,4791.6,Square Feet,125500.0,28.67988,-80.85487,0.0,16.0,False,0.0,False,False,Single Family Residence,www.zillow.com/homedetails/2957-Hartman-Ln-Mims-FL-32754/43370877_zpid/,162.76041666666666
170,43403158,SINGLE_FAMILY,RECENTLY_SOLD,2023-12-29,47,0,125000.0,251 Lincoln Rd,32926,2007,1.0,3.0,1480.0,Square Feet,6969.6,Square Feet,125400.0,28.35713,-80.78989,1.0,31.0,False,0.0,False,False,Single Family Residence,www.zillow.com/homedetails/251-Lincoln-Rd-Cocoa-FL-32926/43403158_zpid/,84.45945945945945
551,43374619,SINGLE_FAMILY,RECENTLY_SOLD,2023-10-06,33,0,125000.0,865 Allendale St,32796,1959,2.0,2.0,1440.0,Square Feet,6098.4,Square Feet,125000.0,28.626799,-80.85858,62.0,780.0,False,0.0,False,False,Single Family Residence,www.zillow.com/homedetails/865-Allendale-St-Titusville-FL-32796/43374619_zpid/,86.80555555555556
296,43380434,SINGLE_FAMILY,RECENTLY_SOLD,2023-11-30,76,0,125000.0,272 Pinedo Dr,32780,1960,2.0,3.0,952.0,Square Feet,9147.0,Square Feet,125700.0,28.572325,-80.802795,0.0,2.0,False,0.0,False,False,nan,www.zillow.com/homedetails/272-Pinedo-Dr-Titusville-FL-32780/43380434_zpid/,131.30252100840337
360,43417208,SINGLE_FAMILY,RECENTLY_SOLD,2023-11-15,91,0,125000.0,215 Circle Dr APT 16,32920,1969,1.0,1.0,583.0,Square Feet,1306.8,Square Feet,125900.0,28.394976,-80.60183,0.0,24.0,False,350.0,False,False,Single Family Residence,www.zillow.com/homedetails/215-Circle-Dr-APT-16-Cape-Canaveral-FL-32920/43417208_zpid/,214.4082332761578
131,43467632,SINGLE_FAMILY,RECENTLY_SOLD,2024-01-10,35,0,125000.0,541 Ann Ave,32935,1962,1.0,3.0,1056.0,Square Feet,9583.0,Square Feet,192100.0,28.138662,-80.65351,1.0,28.0,False,0.0,False,False,nan,www.zillow.com/homedetails/541-Ann-Ave-Melbourne-FL-32935/43467632_zpid/,118.37121212121212
227,43412596,SINGLE_FAMILY,RECENTLY_SOLD,2023-12-18,36,0,125000.0,322 Pine Ave,32922,1958,1.0,3.0,800.0,Square Feet,15245.999999999998,Square Feet,202700.0,28.361523,-80.74907,44.0,639.0,False,0.0,False,False,Single Family Residence,www.zillow.com/homedetails/322-Pine-Ave-Cocoa-FL-32922/43412596_zpid/,156.25
3,43408312,SINGLE_FAMILY,RECENTLY_SOLD,2024-02-13,1,0,126000.0,1432 Mac Arthur Ln,32922,1957,1.0,3.0,768.0,Square Feet,13503.6,Square Feet,126000.0,28.381496,-80.75252,3.0,183.0,False,0.0,False,False,Single Family Residence,www.zillow.com/homedetails/1432-Mac-Arthur-Ln-Cocoa-FL-32922/43408312_zpid/,164.0625
222,43372302,SINGLE_FAMILY,RECENTLY_SOLD,2023-12-19,57,0,126500.0,3372 Oklahoma St,32796,1958,1.0,3.0,1531.0,Square Feet,11325.6,Square Feet,119600.0,28.651249,-80.84412,0.0,7.0,False,0.0,False,False,Single Family Residence,www.zillow.com/homedetails/3372-Oklahoma-St-Titusville-FL-32796/43372302_zpid/,82.62573481384716
625,104124519,SINGLE_FAMILY,RECENTLY_SOLD,2023-09-26,141,0,127000.0,3791 Brantley Cir,32955,2013,3.0,5.0,2237.0,Square Feet,6534.0,Square Feet,140500.0,28.299059,-80.70305,0.0,20.0,False,21.0,False,False,Single Family Residence,www.zillow.com/homedetails/3791-Brantley-Cir-Rockledge-FL-32955/104124519_zpid/,56.772463120250336
326,43393163,SINGLE_FAMILY,RECENTLY_SOLD,2023-11-22,84,0,128000.0,6440 Irving Rd,32927,1984,2.0,3.0,1315.0,Square Feet,10018.0,Square Feet,276700.0,28.47152,-80.81564,0.0,9.0,False,0.0,False,False,nan,www.zillow.com/homedetails/6440-Irving-Rd-Cocoa-FL-32927/43393163_zpid/,97.33840304182509
274,43412877,SINGLE_FAMILY,RECENTLY_SOLD,2023-12-06,70,0,129600.0,1042 W Hillcrest Dr,32922,1959,1.0,3.0,984.0,Square Feet,8276.0,Square Feet,148200.0,28.366003,-80.74311,0.0,15.0,False,0.0,False,False,nan,www.zillow.com/homedetails/1042-W-Hillcrest-Dr-Cocoa-FL-32922/43412877_zpid/,131.70731707317074
102,54601563,SINGLE_FAMILY,RECENTLY_SOLD,2024-01-18,27,0,129900.0,2179 Turpentine Rd,32754,1985,3.0,4.0,2716.0,Square Feet,87991.2,Square Feet,130100.0,28.65831,-80.881226,2.0,90.0,False,0.0,False,False,Single Family Residence,www.zillow.com/homedetails/2179-Turpentine-Rd-Mims-FL-32754/54601563_zpid/,47.82768777614138
452,43408640,SINGLE_FAMILY,RECENTLY_SOLD,2023-10-27,30,0,130000.0,807 Kensington Dr,32922,1957,2.0,3.0,1092.0,Square Feet,7405.2,Square Feet,130000.0,28.377657,-80.740326,93.0,1422.0,False,0.0,False,False,Single Family Residence,www.zillow.com/homedetails/807-Kensington-Dr-Cocoa-FL-32922/43408640_zpid/,119.04761904761905
355,49815325,SINGLE_FAMILY,RECENTLY_SOLD,2023-11-17,89,0,130000.0,3665 Valkaria Rd,32950,1952,1.0,2.0,882.0,Square Feet,18294.999999999996,Square Feet,130900.0,27.963375,-80.54776,0.0,6.0,False,0.0,False,False,nan,www.zillow.com/homedetails/3665-Valkaria-Rd-Grant-Valkaria-FL-32950/49815325_zpid/,147.3922902494331
388,43469747,SINGLE_FAMILY,RECENTLY_SOLD,2023-11-08,98,0,131000.0,2636 Burns Ave,32935,1962,1.0,2.0,792.0,Square Feet,6098.4,Square Feet,131000.0,28.122612,-80.66565,0.0,8.0,False,0.0,False,False,Single Family Residence,www.zillow.com/homedetails/2636-Burns-Ave-Melbourne-FL-32935/43469747_zpid/,165.40404040404042
22,43467534,SINGLE_FAMILY,RECENTLY_SOLD,2024-02-05,9,0,132400.0,2138 Cherrywood Dr,32935,1980,2.0,3.0,1347.0,Square Feet,7840.0,Square Feet,287300.0,28.141949,-80.642586,0.0,7.0,False,0.0,False,False,nan,www.zillow.com/homedetails/2138-Cherrywood-Dr-Melbourne-FL-32935/43467534_zpid/,98.29250185597624
413,43372569,SINGLE_FAMILY,RECENTLY_SOLD,2023-11-02,104,0,133000.0,2915 Nichols Rd,32796,1959,1.0,3.0,1008.0,Square Feet,8712.0,Square Feet,134100.0,28.647364,-80.83951,0.0,6.0,False,0.0,False,False,Single Family Residence,www.zillow.com/homedetails/2915-Nichols-Rd-Titusville-FL-32796/43372569_zpid/,131.94444444444446
523,305793006,SINGLE_FAMILY,RECENTLY_SOLD,2023-10-16,16,0,135000.0,1829 Market Cir NE,32905,2024,3.0,4.0,2417.0,Square Feet,38332.8,Square Feet,603200.0,28.020496,-80.61958,15.0,341.0,True,0.0,False,False,Single Family Residence,www.zillow.com/homedetails/1829-Market-Cir-NE-Palm-Bay-FL-32905/305793006_zpid/,55.854364915184114
465,43403653,SINGLE_FAMILY,RECENTLY_SOLD,2023-10-25,112,0,135100.0,3867 Kennedy Cir,32926,1965,2.0,3.0,1804.0,Square Feet,8712.0,Square Feet,135100.0,28.352182,-80.785355,56.0,611.0,False,0.0,False,False,Single Family Residence,www.zillow.com/homedetails/3867-Kennedy-Cir-Cocoa-FL-32926/43403653_zpid/,74.88913525498891
51,43511666,SINGLE_FAMILY,RECENTLY_SOLD,2024-01-30,15,0,136000.0,1141 Flagami Rd SE,32909,1999,2.0,3.0,1404.0,Square Feet,21343.999999999996,Square Feet,286300.0,27.989408,-80.639404,1.0,6.0,False,0.0,False,False,nan,www.zillow.com/homedetails/1141-Flagami-Rd-SE-Palm-Bay-FL-32909/43511666_zpid/,96.86609686609687
470,43414546,SINGLE_FAMILY,RECENTLY_SOLD,2023-10-25,112,0,137000.0,220 Virginia Ave,32922,1953,1.0,3.0,1020.0,Square Feet,10890.0,Square Feet,165900.0,28.352121,-80.751076,0.0,19.0,False,0.0,False,False,nan,www.zillow.com/homedetails/220-Virginia-Ave-Cocoa-FL-32922/43414546_zpid/,134.31372549019608
607,43385458,SINGLE_FAMILY,RECENTLY_SOLD,2023-09-27,140,0,137500.0,5015 Santa Barbara Ave,32780,1984,2.0,2.0,1248.0,Square Feet,5662.0,Square Feet,138900.0,28.54886,-80.80398,1.0,2.0,False,0.0,False,True,nan,www.zillow.com/homedetails/5015-Santa-Barbara-Ave-Titusville-FL-32780/43385458_zpid/,110.17628205128206
428,43413974,SINGLE_FAMILY,RECENTLY_SOLD,2023-10-31,106,0,138000.0,353 Country Lane Dr,32926,1981,2.0,2.0,1028.0,Square Feet,5662.0,Square Feet,207100.0,28.361397,-80.76662,0.0,3.0,False,0.0,False,False,nan,www.zillow.com/homedetails/353-Country-Lane-Dr-Cocoa-FL-32926/43413974_zpid/,134.24124513618676
438,71030272,SINGLE_FAMILY,RECENTLY_SOLD,2023-10-31,106,0,138000.0,355 Country Lane Dr,32926,1981,2.0,3.0,1028.0,Square Feet,5227.2,Square Feet,139100.0,28.36149,-80.76661,0.0,3.0,False,0.0,False,False,Single Family Residence,www.zillow.com/homedetails/355-Country-Lane-Dr-Cocoa-FL-32926/71030272_zpid/,134.24124513618676
601,43412899,SINGLE_FAMILY,RECENTLY_SOLD,2023-09-28,139,0,139000.0,1105 Kirkland Dr,32922,1959,1.0,3.0,1728.0,Square Feet,8276.0,Square Feet,224600.0,28.3663,-80.74453,0.0,7.0,False,0.0,False,False,nan,www.zillow.com/homedetails/1105-Kirkland-Dr-Cocoa-FL-32922/43412899_zpid/,80.43981481481481
214,50124900,SINGLE_FAMILY,RECENTLY_SOLD,2023-12-21,1,0,140000.0,115 Primrose Ln,32901,1956,1.0,2.0,932.0,Square Feet,7405.2,Square Feet,140000.0,28.097849,-80.6172,2.0,145.0,False,0.0,False,False,Single Family Residence,www.zillow.com/homedetails/115-Primrose-Ln-Melbourne-FL-32901/50124900_zpid/,150.21459227467813
257,43491945,SINGLE_FAMILY,RECENTLY_SOLD,2023-12-11,65,0,140000.0,1125 Gainey Dr,32901,1957,3.0,6.0,1632.0,Square Feet,6098.4,Square Feet,141000.0,28.065138,-80.601585,0.0,21.0,False,0.0,False,False,Single Family Residence,www.zillow.com/homedetails/1125-Gainey-Dr-Melbourne-FL-32901/43491945_zpid/,85.7843137254902
444,43456204,SINGLE_FAMILY,RECENTLY_SOLD,2023-10-30,107,0,140000.0,1560 N John Rodes Blvd,32934,1967,1.5,3.0,1192.0,Square Feet,27878.0,Square Feet,272900.0,28.131788,-80.69971,0.0,11.0,False,0.0,False,False,nan,www.zillow.com/homedetails/1560-N-John-Rodes-Blvd-Melbourne-FL-32934/43456204_zpid/,117.4496644295302
197,43486012,SINGLE_FAMILY,RECENTLY_SOLD,2023-12-27,49,0,140000.0,113 Americana Blvd NW,32907,1980,2.0,3.0,1025.0,Square Feet,10454.4,Square Feet,182100.0,28.011328,-80.67269,0.0,29.0,False,0.0,False,False,Single Family Residence,www.zillow.com/homedetails/113-Americana-Blvd-NW-Palm-Bay-FL-32907/43486012_zpid/,136.58536585365854
196,43468718,SINGLE_FAMILY,RECENTLY_SOLD,2023-12-27,49,0,140000.0,2184 Shelby Dr,32935,1960,1.0,2.0,920.0,Square Feet,6534.0,Square Feet,188700.0,28.13106,-80.65722,0.0,29.0,False,0.0,False,False,nan,www.zillow.com/homedetails/2184-Shelby-Dr-Melbourne-FL-32935/43468718_zpid/,152.17391304347825
68,43456139,SINGLE_FAMILY,RECENTLY_SOLD,2024-01-25,20,0,140000.0,1150 Joyal Dr,32934,1959,1.0,2.0,1228.0,Square Feet,10018.0,Square Feet,181000.0,28.135654,-80.67264,0.0,16.0,False,0.0,False,False,nan,www.zillow.com/homedetails/1150-Joyal-Dr-Melbourne-FL-32934/43456139_zpid/,114.00651465798046
289,43401701,SINGLE_FAMILY,RECENTLY_SOLD,2023-12-01,75,0,140000.0,6713 Bear Trl,32926,1998,2.0,2.0,924.0,Square Feet,43560.0,Square Feet,140800.0,28.380367,-80.84259,0.0,11.0,False,0.0,False,False,nan,www.zillow.com/homedetails/6713-Bear-Trl-Cocoa-FL-32926/43401701_zpid/,151.5151515151515
626,43375897,SINGLE_FAMILY,RECENTLY_SOLD,2023-09-25,142,0,140000.0,1925 Buffalo Rd,32796,1959,1.0,3.0,1120.0,Square Feet,9583.2,Square Feet,133300.0,28.62324,-80.82351,1.0,12.0,False,0.0,False,False,Single Family Residence,www.zillow.com/homedetails/1925-Buffalo-Rd-Titusville-FL-32796/43375897_zpid/,125.0
575,43524649,SINGLE_FAMILY,RECENTLY_SOLD,2023-10-04,133,0,142900.0,911 Barefoot Blvd,32976,1972,2.0,2.0,880.0,Square Feet,3920.4,Square Feet,144300.0,27.887182,-80.520836,0.0,13.0,False,78.0,False,False,Single Family Residence,www.zillow.com/homedetails/911-Barefoot-Blvd-Barefoot-Bay-FL-32976/43524649_zpid/,162.38636363636363
640,43402290,SINGLE_FAMILY,RECENTLY_SOLD,2023-09-21,114,0,145000.0,2511 N Palm Dr,32926,1982,2.0,2.0,1040.0,Square Feet,10454.4,Square Feet,263600.0,28.369455,-80.77199,33.0,288.0,False,0.0,False,False,Single Family Residence,www.zillow.com/homedetails/2511-N-Palm-Dr-Cocoa-FL-32926/43402290_zpid/,139.42307692307693
424,305792701,SINGLE_FAMILY,RECENTLY_SOLD,2023-11-01,105,0,145000.0,4135 Domain Ct,32934,2022,4.0,3.0,2893.0,Square Feet,17424.0,Square Feet,146100.0,28.169827,-80.71411,0.0,4.0,False,75.0,False,False,Single Family Residence,www.zillow.com/homedetails/4135-Domain-Ct-Melbourne-FL-32934/305792701_zpid/,50.120981679917044
281,43511910,SINGLE_FAMILY,RECENTLY_SOLD,2023-12-05,12,1,145100.0,670 Bluefields St SE,32909,1984,2.0,3.0,1120.0,Square Feet,10890.0,Square Feet,145100.0,27.984524,-80.655075,346.0,5082.0,False,0.0,False,False,Single Family Residence,www.zillow.com/homedetails/670-Bluefields-St-SE-Palm-Bay-FL-32909/43511910_zpid/,129.55357142857142
66,43402145,SINGLE_FAMILY,RECENTLY_SOLD,2024-01-25,20,0,146400.0,745 Cox Rd,32926,1974,2.0,3.0,2018.0,Square Feet,40075.00000000001,Square Feet,259200.0,28.368237,-80.7875,0.0,12.0,False,0.0,False,False,nan,www.zillow.com/homedetails/745-Cox-Rd-Cocoa-FL-32926/43402145_zpid/,72.54707631318136
389,43484732,SINGLE_FAMILY,RECENTLY_SOLD,2023-11-08,98,0,146698.0,901 Gannet Ave NW,32907,1985,2.0,3.0,1573.0,Square Feet,11761.000000000002,Square Feet,275900.0,28.021486,-80.724945,0.0,8.0,False,0.0,False,False,nan,www.zillow.com/homedetails/901-Gannet-Ave-NW-Palm-Bay-FL-32907/43484732_zpid/,93.26001271455817
9,43467371,SINGLE_FAMILY,RECENTLY_SOLD,2024-02-09,5,0,147000.0,1315 Pinewood Dr,32935,1958,1.0,3.0,888.0,Square Feet,7405.2,Square Feet,147000.0,28.13536,-80.64135,0.0,76.0,False,0.0,False,False,Single Family Residence,www.zillow.com/homedetails/1315-Pinewood-Dr-Melbourne-FL-32935/43467371_zpid/,165.54054054054055
172,43414574,SINGLE_FAMILY,RECENTLY_SOLD,2023-12-29,47,1,147500.0,723 Ixora Ave,32922,1963,2.0,3.0,1488.0,Square Feet,10018.8,Square Feet,148000.0,28.34951,-80.74748,0.0,52.0,False,0.0,False,False,Single Family Residence,www.zillow.com/homedetails/723-Ixora-Ave-Cocoa-FL-32922/43414574_zpid/,99.1263440860215
245,43415125,SINGLE_FAMILY,RECENTLY_SOLD,2023-12-12,64,0,147500.0,614 Paw Paw St,32922,1958,2.0,3.0,1629.0,Square Feet,5662.0,Square Feet,172200.0,28.35152,-80.73507,0.0,14.0,False,0.0,False,False,nan,www.zillow.com/homedetails/614-Paw-Paw-St-Cocoa-FL-32922/43415125_zpid/,90.5463474524248
404,43401052,SINGLE_FAMILY,RECENTLY_SOLD,2023-11-03,103,0,149000.0,3645 Longbow Rd,32926,1983,2.0,3.0,1667.0,Square Feet,7840.8,Square Feet,141800.0,28.395197,-80.77676,1.0,30.0,False,0.0,False,False,Single Family Residence,www.zillow.com/homedetails/3645-Longbow-Rd-Cocoa-FL-32926/43401052_zpid/,89.38212357528494
185,43435410,SINGLE_FAMILY,RECENTLY_SOLD,2023-12-28,48,0,149000.0,815 Newfound Harbor Dr,32952,1977,2.0,4.0,1765.0,Square Feet,16552.8,Square Feet,463700.0,28.343521,-80.665344,2.0,45.0,False,0.0,False,False,Single Family Residence,www.zillow.com/homedetails/815-Newfound-Harbor-Dr-Merritt-Island-FL-32952/43435410_zpid/,84.41926345609065
619,43486597,SINGLE_FAMILY,RECENTLY_SOLD,2023-09-26,141,0,149900.0,601 E Fee Ave,32901,1942,1.0,2.0,888.0,Square Feet,8712.0,Square Feet,151400.0,28.081583,-80.61112,0.0,28.0,False,0.0,False,False,nan,www.zillow.com/homedetails/601-E-Fee-Ave-Melbourne-FL-32901/43486597_zpid/,168.8063063063063
226,43374686,SINGLE_FAMILY,RECENTLY_SOLD,2023-12-18,58,0,150000.0,4045 Alachua Ave,32796,1965,2.0,3.0,1282.0,Square Feet,7405.0,Square Feet,273600.0,28.626234,-80.8614,0.0,25.0,False,0.0,False,False,nan,www.zillow.com/homedetails/4045-Alachua-Ave-Titusville-FL-32796/43374686_zpid/,117.00468018720748
37,54620184,SINGLE_FAMILY,RECENTLY_SOLD,2024-02-01,13,0,150000.0,609 Seven Gables Cir SE,32909,1986,2.0,3.0,1500.0,Square Feet,14373.999999999996,Square Feet,285700.0,27.967577,-80.65485,0.0,3.0,False,0.0,False,False,nan,www.zillow.com/homedetails/609-Seven-Gables-Cir-SE-Palm-Bay-FL-32909/54620184_zpid/,100.0
425,43369586,SINGLE_FAMILY,RECENTLY_SOLD,2023-10-31,106,0,150000.0,1750 Tomato Farm Rd,32754,1947,2.0,2.0,1180.0,Square Feet,123274.0,Square Feet,151200.0,28.64466,-80.88643,0.0,2.0,False,0.0,False,False,nan,www.zillow.com/homedetails/1750-Tomato-Farm-Rd-Mims-FL-32754/43369586_zpid/,127.11864406779661
512,43469278,SINGLE_FAMILY,RECENTLY_SOLD,2023-10-17,120,0,150000.0,2133 Cheryl Ct,32935,1962,1.0,2.0,1070.0,Square Feet,7405.0,Square Feet,260600.0,28.125938,-80.65616,0.0,9.0,False,0.0,False,False,nan,www.zillow.com/homedetails/2133-Cheryl-Ct-Melbourne-FL-32935/43469278_zpid/,140.18691588785046
216,43374073,SINGLE_FAMILY,RECENTLY_SOLD,2023-12-20,56,0,150000.0,3750 W Powder Horn Rd,32796,1982,2.0,2.0,1294.0,Square Feet,10890.0,Square Feet,252400.0,28.63795,-80.85552,0.0,9.0,False,0.0,False,False,nan,www.zillow.com/homedetails/3750-W-Powder-Horn-Rd-Titusville-FL-32796/43374073_zpid/,115.91962905718702
564,43420612,SINGLE_FAMILY,RECENTLY_SOLD,2023-10-05,132,0,150000.0,113 Lincoln Ave,32920,1958,2.0,2.0,919.0,Square Feet,6969.0,Square Feet,151400.0,28.380398,-80.60451,0.0,12.0,False,0.0,False,False,nan,www.zillow.com/homedetails/113-Lincoln-Ave-Cape-Canaveral-FL-32920/43420612_zpid/,163.2208922742111
188,43475111,SINGLE_FAMILY,RECENTLY_SOLD,2023-12-28,48,0,150000.0,101 Bluff Ter,32901,1958,2.0,3.0,1296.0,Square Feet,17859.0,Square Feet,150800.0,28.102308,-80.619576,0.0,5.0,False,0.0,False,False,nan,www.zillow.com/homedetails/101-Bluff-Ter-Melbourne-FL-32901/43475111_zpid/,115.74074074074075
585,43408130,SINGLE_FAMILY,RECENTLY_SOLD,2023-09-29,138,0,150000.0,1802 Cambridge Dr,32922,1960,2.0,3.0,1866.0,Square Feet,10454.4,Square Feet,147200.0,28.382353,-80.75018,0.0,8.0,False,0.0,False,False,Single Family Residence,www.zillow.com/homedetails/1802-Cambridge-Dr-Cocoa-FL-32922/43408130_zpid/,80.38585209003216
95,43460049,SINGLE_FAMILY,RECENTLY_SOLD,2024-01-19,26,0,150000.0,3135 Shady Dell Ln APT 201,32935,1974,2.0,3.0,1174.0,Square Feet,2178.0,Square Feet,150200.0,28.159819,-80.64355,0.0,9.0,False,0.0,False,False,nan,www.zillow.com/homedetails/3135-Shady-Dell-Ln-APT-201-Melbourne-FL-32935/43460049_zpid/,127.76831345826236
401,43408694,SINGLE_FAMILY,RECENTLY_SOLD,2023-11-06,100,0,150000.0,1309 S Lakemont Dr,32922,1960,1.0,3.0,988.0,Square Feet,9147.0,Square Feet,171900.0,28.375477,-80.74454,0.0,7.0,False,0.0,False,False,nan,www.zillow.com/homedetails/1309-S-Lakemont-Dr-Cocoa-FL-32922/43408694_zpid/,151.82186234817814
77,43497505,SINGLE_FAMILY,RECENTLY_SOLD,2024-01-23,22,0,151100.0,2951 Gemini Ave NE,32905,1969,2.0,3.0,1328.0,Square Feet,7405.0,Square Feet,151100.0,28.014677,-80.582375,1.0,62.0,False,0.0,False,False,nan,www.zillow.com/homedetails/2951-Gemini-Ave-NE-Palm-Bay-FL-32905/43497505_zpid/,113.78012048192771
206,43376373,SINGLE_FAMILY,RECENTLY_SOLD,2023-12-22,54,0,152000.0,305 Elaine Dr,32796,1955,2.0,3.0,1085.0,Square Feet,6969.6,Square Feet,159800.0,28.618156,-80.81356,2.0,22.0,False,0.0,False,False,Single Family Residence,www.zillow.com/homedetails/305-Elaine-Dr-Titusville-FL-32796/43376373_zpid/,140.0921658986175
426,43376171,SINGLE_FAMILY,RECENTLY_SOLD,2023-10-31,106,0,155000.0,1800 Augustine Dr,32796,1962,2.0,2.0,1092.0,Square Feet,9147.0,Square Feet,248500.0,28.617998,-80.824684,0.0,21.0,False,0.0,False,False,nan,www.zillow.com/homedetails/1800-Augustine-Dr-Titusville-FL-32796/43376171_zpid/,141.94139194139194
576,43402744,SINGLE_FAMILY,RECENTLY_SOLD,2023-10-03,134,0,155000.0,5757 Lake Poinsett Rd,32926,1965,1.0,0.0,600.0,Square Feet,3920.4,Square Feet,155000.0,28.35031,-80.81614,0.0,13.0,False,0.0,False,False,Single Family Residence,www.zillow.com/homedetails/5757-Lake-Poinsett-Rd-Cocoa-FL-32926/43402744_zpid/,258.3333333333333
568,49423525,SINGLE_FAMILY,RECENTLY_SOLD,2023-10-05,132,0,155000.0,397 Yellowstone Ave NE,32907,2000,2.0,3.0,1913.0,Square Feet,19166.0,Square Feet,366800.0,28.005188,-80.61429,0.0,6.0,False,0.0,False,False,nan,www.zillow.com/homedetails/397-Yellowstone-Ave-NE-Palm-Bay-FL-32907/49423525_zpid/,81.02456874019865
315,43497717,SINGLE_FAMILY,RECENTLY_SOLD,2023-11-29,77,0,155000.0,2971 Redgrove Dr NE,32905,1967,1.0,2.0,1346.0,Square Feet,9147.0,Square Feet,192400.0,28.022243,-80.58167,0.0,21.0,False,0.0,False,False,nan,www.zillow.com/homedetails/2971-Redgrove-Dr-NE-Palm-Bay-FL-32905/43497717_zpid/,115.15601783060922
294,43497904,SINGLE_FAMILY,RECENTLY_SOLD,2023-12-01,75,0,155000.0,1188 Glenham Dr NE,32905,1958,1.0,3.0,1148.0,Square Feet,10018.8,Square Feet,156100.0,28.026901,-80.59346,1.0,17.0,False,0.0,False,False,Single Family Residence,www.zillow.com/homedetails/1188-Glenham-Dr-NE-Palm-Bay-FL-32905/43497904_zpid/,135.01742160278746
65,43394387,SINGLE_FAMILY,RECENTLY_SOLD,2024-01-25,20,0,156000.0,4230 Ponds Dr,32927,1981,2.0,3.0,1026.0,Square Feet,10454.0,Square Feet,234500.0,28.473097,-80.79183,0.0,29.0,False,0.0,False,False,nan,www.zillow.com/homedetails/4230-Ponds-Dr-Cocoa-FL-32927/43394387_zpid/,152.046783625731
610,43412469,SINGLE_FAMILY,RECENTLY_SOLD,2023-09-27,28,0,160000.0,1009 Greenwood Way,32922,1958,2.0,3.0,968.0,Square Feet,8276.4,Square Feet,236600.0,28.37096,-80.74987,25.0,408.0,False,0.0,False,False,Single Family Residence,www.zillow.com/homedetails/1009-Greenwood-Way-Cocoa-FL-32922/43412469_zpid/,165.28925619834712
553,43410370,SINGLE_FAMILY,RECENTLY_SOLD,2023-10-06,131,0,160000.0,1085 Koch St,32953,1958,1.0,2.0,896.0,Square Feet,12196.999999999998,Square Feet,161500.0,28.375523,-80.70465,0.0,15.0,False,0.0,False,False,Single Family Residence,www.zillow.com/homedetails/1085-Koch-St-Merritt-Island-FL-32953/43410370_zpid/,178.57142857142858
135,43497238,SINGLE_FAMILY,RECENTLY_SOLD,2024-01-09,36,0,160000.0,961 Canal Ln NE,32905,1965,2.0,3.0,1296.0,Square Feet,9147.6,Square Feet,160700.0,28.02185,-80.5823,1.0,48.0,False,0.0,True,False,Single Family Residence,www.zillow.com/homedetails/961-Canal-Ln-NE-Palm-Bay-FL-32905/43497238_zpid/,123.45679012345678
258,43504547,SINGLE_FAMILY,RECENTLY_SOLD,2023-12-11,65,0,160000.0,492 Tewksbury Ln NE,32907,1978,2.0,3.0,1320.0,Square Feet,8276.0,Square Feet,160800.0,28.008753,-80.63423,0.0,8.0,False,0.0,False,False,nan,www.zillow.com/homedetails/492-Tewksbury-Ln-NE-Palm-Bay-FL-32907/43504547_zpid/,121.21212121212122
356,104117966,SINGLE_FAMILY,RECENTLY_SOLD,2023-11-17,89,0,160000.0,1954 Southland Ave,32935,2008,2.0,4.0,1109.0,Square Feet,3484.8,Square Feet,192800.0,28.138716,-80.63767,0.0,21.0,False,0.0,False,False,Single Family Residence,www.zillow.com/homedetails/1954-Southland-Ave-Melbourne-FL-32935/104117966_zpid/,144.2741208295762
128,43471592,SINGLE_FAMILY,RECENTLY_SOLD,2024-01-11,34,0,160000.0,1814 Pontiac Cir N,32935,1964,2.0,3.0,1322.0,Square Feet,7840.0,Square Feet,160300.0,28.120611,-80.65025,0.0,33.0,False,0.0,False,False,nan,www.zillow.com/homedetails/1814-Pontiac-Cir-N-Melbourne-FL-32935/43471592_zpid/,121.02874432677761
126,71023914,SINGLE_FAMILY,RECENTLY_SOLD,2024-01-12,33,0,160000.0,375 Lachine St SW,32908,2005,2.0,3.0,1858.0,Square Feet,10018.0,Square Feet,281700.0,27.937197,-80.67909,0.0,8.0,False,0.0,False,False,nan,www.zillow.com/homedetails/375-Lachine-St-SW-Palm-Bay-FL-32908/71023914_zpid/,86.11410118406889
377,43408562,SINGLE_FAMILY,RECENTLY_SOLD,2023-11-13,93,1,160000.0,1321 Audubon Dr,32922,1958,2.0,3.0,1152.0,Square Feet,9583.0,Square Feet,229900.0,28.37503,-80.746086,0.0,25.0,False,0.0,False,False,nan,www.zillow.com/homedetails/1321-Audubon-Dr-Cocoa-FL-32922/43408562_zpid/,138.88888888888889
44,43488666,SINGLE_FAMILY,RECENTLY_SOLD,2024-01-31,78,0,161000.0,235 Bossieux Blvd,32904,1954,2.0,3.0,1424.0,Square Feet,10454.0,Square Feet,161000.0,28.074842,-80.666275,3.0,76.0,False,0.0,False,False,nan,www.zillow.com/homedetails/235-Bossieux-Blvd-West-Melbourne-FL-32904/43488666_zpid/,113.06179775280899
549,54615333,SINGLE_FAMILY,RECENTLY_SOLD,2023-10-09,128,0,162500.0,2781 N Breeze Rd,32935,1964,2.0,3.0,1199.0,Square Feet,9583.2,Square Feet,164000.0,28.13165,-80.66835,0.0,17.0,False,0.0,False,False,Single Family Residence,www.zillow.com/homedetails/2781-N-Breeze-Rd-Melbourne-FL-32935/54615333_zpid/,135.52960800667222
295,43380349,SINGLE_FAMILY,RECENTLY_SOLD,2023-11-30,76,0,163350.0,137 Court St,32780,1959,1.0,2.0,572.0,Square Feet,5227.2,Square Feet,164400.0,28.578629,-80.80156,0.0,17.0,False,0.0,False,False,Single Family Residence,www.zillow.com/homedetails/137-Court-St-Titusville-FL-32780/43380349_zpid/,285.5769230769231
58,43371525,SINGLE_FAMILY,RECENTLY_SOLD,2024-01-26,19,0,164900.0,2681 Orange Ave,32754,1959,1.0,2.0,592.0,Square Feet,7405.2,Square Feet,164900.0,28.671465,-80.84126,0.0,49.0,False,0.0,False,False,Single Family Residence,www.zillow.com/homedetails/2681-Orange-Ave-Mims-FL-32754/43371525_zpid/,278.5472972972973
38,80766748,SINGLE_FAMILY,RECENTLY_SOLD,2024-02-01,13,0,165000.0,1504 Belleview Rd,32922,2006,2.0,3.0,1178.0,Square Feet,5662.8,Square Feet,165100.0,28.364555,-80.75329,2.0,113.0,False,0.0,False,False,Single Family Residence,www.zillow.com/homedetails/1504-Belleview-Rd-Cocoa-FL-32922/80766748_zpid/,140.0679117147708
118,43394608,SINGLE_FAMILY,RECENTLY_SOLD,2024-01-12,33,0,165000.0,6065 Rena Ave,32927,1987,2.0,3.0,1368.0,Square Feet,10454.4,Square Feet,171000.0,28.464827,-80.80119,1.0,70.0,False,0.0,False,False,Single Family Residence,www.zillow.com/homedetails/6065-Rena-Ave-Cocoa-FL-32927/43394608_zpid/,120.6140350877193
291,43409359,SINGLE_FAMILY,RECENTLY_SOLD,2023-12-01,7,0,165000.0,1165 Delmonte St,32953,1965,2.0,4.0,1234.0,Square Feet,7840.8,Square Feet,329300.0,28.377298,-80.7068,20.0,606.0,False,0.0,False,False,Single Family Residence,www.zillow.com/homedetails/1165-Delmonte-St-Merritt-Island-FL-32953/43409359_zpid/,133.71150729335494
191,54608668,SINGLE_FAMILY,RECENTLY_SOLD,2023-12-28,48,0,165000.0,1067 Lee Ave,32955,1970,2.0,3.0,1000.0,Square Feet,7840.0,Square Feet,165900.0,28.315655,-80.74545,0.0,16.0,False,0.0,False,False,nan,www.zillow.com/homedetails/1067-Lee-Ave-Rockledge-FL-32955/54608668_zpid/,165.0
74,43408592,SINGLE_FAMILY,RECENTLY_SOLD,2024-01-23,22,0,165000.0,1319 N Fiske Blvd,32922,1956,2.0,3.0,1228.0,Square Feet,9147.6,Square Feet,165000.0,28.375698,-80.74354,5.0,155.0,False,0.0,False,False,Single Family Residence,www.zillow.com/homedetails/1319-N-Fiske-Blvd-Cocoa-FL-32922/43408592_zpid/,134.36482084690553
518,43415974,SINGLE_FAMILY,RECENTLY_SOLD,2023-10-16,121,0,165000.0,23 Corriente St,32952,1962,1.0,3.0,1320.0,Square Feet,8712.0,Square Feet,165000.0,28.347073,-80.69852,0.0,12.0,False,0.0,False,False,Single Family Residence,www.zillow.com/homedetails/23-Corriente-St-Merritt-Island-FL-32952/43415974_zpid/,125.0
4,2068968809,SINGLE_FAMILY,RECENTLY_SOLD,2024-02-13,1,0,165000.0,882 Carnival Rd SE #12,32909,1985,2.0,3.0,966.0,Square Feet,10018.8,Square Feet,216600.0,27.978214,-80.65889,19.0,363.0,False,0.0,False,False,Single Family Residence,www.zillow.com/homedetails/882-Carnival-Rd-SE-12-Palm-Bay-FL-32909/2068968809_zpid/,170.80745341614906
249,43498744,SINGLE_FAMILY,RECENTLY_SOLD,2023-12-12,64,0,165000.0,761 Aragon Ave NE,32905,1979,2.0,3.0,1407.0,Square Feet,11761.000000000002,Square Feet,263300.0,28.016268,-80.61671,0.0,20.0,False,0.0,False,False,nan,www.zillow.com/homedetails/761-Aragon-Ave-NE-Palm-Bay-FL-32905/43498744_zpid/,117.27078891257996
247,43470970,SINGLE_FAMILY,RECENTLY_SOLD,2023-12-12,64,0,165000.0,727 Renner Ave,32935,1963,1.5,3.0,936.0,Square Feet,6534.0,Square Feet,239000.0,28.118685,-80.65705,0.0,13.0,False,0.0,False,False,nan,www.zillow.com/homedetails/727-Renner-Ave-Melbourne-FL-32935/43470970_zpid/,176.28205128205127
492,43412390,SINGLE_FAMILY,RECENTLY_SOLD,2023-10-20,117,0,165000.0,1207 Dixon Blvd,32922,1958,2.0,3.0,1448.0,Square Feet,7405.2,Square Feet,166400.0,28.372822,-80.747765,0.0,41.0,False,0.0,False,False,Single Family Residence,www.zillow.com/homedetails/1207-Dixon-Blvd-Cocoa-FL-32922/43412390_zpid/,113.95027624309392
378,43423545,SINGLE_FAMILY,RECENTLY_SOLD,2023-11-13,93,0,165000.0,390 W Cocoa Beach Cswy UNIT 92,32931,1965,1.0,0.0,512.0,Square Feet,871.0,Square Feet,166300.0,28.35685,-80.61248,0.0,9.0,False,0.0,False,False,nan,www.zillow.com/homedetails/390-W-Cocoa-Beach-Cswy-UNIT-92-Cocoa-Beach-FL-32931/43423545_zpid/,322.265625
508,43509439,SINGLE_FAMILY,RECENTLY_SOLD,2023-10-18,73,0,165000.0,410 Tunis Rd SW,32908,1984,1.0,3.0,1053.0,Square Feet,10454.4,Square Feet,231600.0,27.990595,-80.702324,59.0,950.0,False,0.0,False,False,nan,www.zillow.com/homedetails/410-Tunis-Rd-SW-Palm-Bay-FL-32908/43509439_zpid/,156.6951566951567
396,43492049,SINGLE_FAMILY,RECENTLY_SOLD,2023-11-07,100,0,165100.0,3334 Henry St,32901,1977,2.0,3.0,2834.0,Square Feet,16551.999999999996,Square Feet,290800.0,28.058556,-80.59795,8.0,58.0,False,0.0,False,False,nan,www.zillow.com/homedetails/3334-Henry-St-Melbourne-FL-32901/43492049_zpid/,58.25688073394495
392,43380883,SINGLE_FAMILY,RECENTLY_SOLD,2023-11-07,99,0,165400.0,1414 Turnesa Dr,32780,1967,2.0,3.0,1390.0,Square Feet,10018.0,Square Feet,271600.0,28.582514,-80.81883,1.0,10.0,False,0.0,False,False,nan,www.zillow.com/homedetails/1414-Turnesa-Dr-Titusville-FL-32780/43380883_zpid/,118.99280575539568
337,54616355,SINGLE_FAMILY,RECENTLY_SOLD,2023-11-21,13,0,166000.0,514 Wisteria Dr,32901,1956,1.0,3.0,1476.0,Square Feet,8276.4,Square Feet,277200.0,28.099167,-80.61998,29.0,739.0,False,0.0,False,False,Single Family Residence,www.zillow.com/homedetails/514-Wisteria-Dr-Melbourne-FL-32901/54616355_zpid/,112.46612466124661
223,43477552,SINGLE_FAMILY,RECENTLY_SOLD,2023-12-19,57,0,166000.0,2250 Wilcox St,32904,1961,2.0,3.0,1172.0,Square Feet,16116.999999999998,Square Feet,167000.0,28.073935,-80.68433,0.0,15.0,False,0.0,False,False,nan,www.zillow.com/homedetails/2250-Wilcox-St-Melbourne-FL-32904/43477552_zpid/,141.63822525597269
385,43423318,SINGLE_FAMILY,RECENTLY_SOLD,2023-11-09,97,0,167000.0,500 Kennebec St,32952,1968,2.0,3.0,1379.0,Square Feet,13503.0,Square Feet,308200.0,28.34866,-80.66376,0.0,11.0,False,0.0,False,False,nan,www.zillow.com/homedetails/500-Kennebec-St-Merritt-Island-FL-32952/43423318_zpid/,121.1022480058013
334,43471276,SINGLE_FAMILY,RECENTLY_SOLD,2023-11-21,85,0,167600.0,1894 Jefferson Ave,32935,1957,1.5,3.0,1080.0,Square Feet,8712.0,Square Feet,245300.0,28.123428,-80.65177,0.0,12.0,False,0.0,False,False,nan,www.zillow.com/homedetails/1894-Jefferson-Ave-Melbourne-FL-32935/43471276_zpid/,155.1851851851852
408,43467180,SINGLE_FAMILY,RECENTLY_SOLD,2023-11-03,103,0,169000.0,1255 Palmwood Dr,32935,1961,1.0,3.0,920.0,Square Feet,10018.8,Square Feet,193500.0,28.13991,-80.64021,0.0,20.0,False,0.0,False,False,Single Family Residence,www.zillow.com/homedetails/1255-Palmwood-Dr-Melbourne-FL-32935/43467180_zpid/,183.69565217391303
330,43505266,SINGLE_FAMILY,RECENTLY_SOLD,2023-11-22,84,0,170000.0,306 Harvey Ave NE,32907,1979,2.0,3.0,1567.0,Square Feet,10018.8,Square Feet,171100.0,28.003893,-80.617645,2.0,32.0,False,0.0,False,False,Single Family Residence,www.zillow.com/homedetails/306-Harvey-Ave-NE-Palm-Bay-FL-32907/43505266_zpid/,108.48755583918316
219,43468602,SINGLE_FAMILY,RECENTLY_SOLD,2023-12-20,56,0,170000.0,1497 Breeze Ln,32935,1964,2.0,2.0,960.0,Square Feet,7405.0,Square Feet,238300.0,28.131264,-80.6676,0.0,10.0,False,0.0,False,False,nan,www.zillow.com/homedetails/1497-Breeze-Ln-Melbourne-FL-32935/43468602_zpid/,177.08333333333334
631,43399433,SINGLE_FAMILY,RECENTLY_SOLD,2023-09-22,145,0,170000.0,4805 Pine St,32926,1991,2.0,3.0,2207.0,Square Feet,64903.99999999999,Square Feet,496000.0,28.430286,-80.82637,0.0,22.0,False,0.0,False,False,nan,www.zillow.com/homedetails/4805-Pine-St-Cocoa-FL-32926/43399433_zpid/,77.02763932940644
311,43375566,SINGLE_FAMILY,RECENTLY_SOLD,2023-11-29,77,0,170000.0,3368 Elder St,32796,1961,2.0,3.0,1478.0,Square Feet,8276.4,Square Feet,185300.0,28.620537,-80.84702,0.0,9.0,False,0.0,False,False,Single Family Residence,www.zillow.com/homedetails/3368-Elder-St-Titusville-FL-32796/43375566_zpid/,115.02029769959404
477,43423089,SINGLE_FAMILY,RECENTLY_SOLD,2023-10-24,113,0,170000.0,140 S Marjorie Ct,32952,1978,2.0,2.0,918.0,Square Feet,4356.0,Square Feet,172400.0,28.35438,-80.66622,0.0,9.0,False,8.0,False,False,Single Family Residence,www.zillow.com/homedetails/140-S-Marjorie-Ct-Merritt-Island-FL-32952/43423089_zpid/,185.1851851851852
207,43411098,SINGLE_FAMILY,RECENTLY_SOLD,2023-12-22,54,0,170000.0,355 Hunt Dr,32953,1961,2.0,3.0,1490.0,Square Feet,16116.999999999998,Square Feet,266700.0,28.367998,-80.7074,0.0,9.0,False,0.0,False,False,nan,www.zillow.com/homedetails/355-Hunt-Dr-Merritt-Island-FL-32953/43411098_zpid/,114.09395973154362
524,43379444,SINGLE_FAMILY,RECENTLY_SOLD,2023-10-13,124,0,170000.0,857 Kenilworth Ct,32780,1986,2.0,3.0,1248.0,Square Feet,7405.2,Square Feet,171500.0,28.597523,-80.811745,0.0,12.0,False,0.0,False,False,Single Family Residence,www.zillow.com/homedetails/857-Kenilworth-Ct-Titusville-FL-32780/43379444_zpid/,136.21794871794873
510,43515169,SINGLE_FAMILY,RECENTLY_SOLD,2023-10-18,119,0,170000.0,971 Saint Johns St SE,32909,1991,2.0,3.0,1096.0,Square Feet,20037.0,Square Feet,277600.0,27.954885,-80.64475,0.0,20.0,False,0.0,False,False,nan,www.zillow.com/homedetails/971-Saint-Johns-St-SE-Palm-Bay-FL-32909/43515169_zpid/,155.1094890510949
141,43468742,SINGLE_FAMILY,RECENTLY_SOLD,2024-01-08,37,0,170000.0,2193 Leewood Blvd,32935,1960,1.0,3.0,1033.0,Square Feet,7405.2,Square Feet,170800.0,28.13207,-80.657425,0.0,18.0,False,0.0,False,False,Single Family Residence,www.zillow.com/homedetails/2193-Leewood-Blvd-Melbourne-FL-32935/43468742_zpid/,164.56921587608906
482,43469618,SINGLE_FAMILY,RECENTLY_SOLD,2023-10-23,35,0,170000.0,2468 Lisa Ln,32935,1965,2.0,4.0,1844.0,Square Feet,7405.2,Square Feet,170000.0,28.126314,-80.66245,144.0,1525.0,False,0.0,False,False,Single Family Residence,www.zillow.com/homedetails/2468-Lisa-Ln-Melbourne-FL-32935/43469618_zpid/,92.19088937093275
323,43408663,SINGLE_FAMILY,RECENTLY_SOLD,2023-11-24,15,0,170000.0,902 Kensington Dr,32922,1956,2.0,3.0,1200.0,Square Feet,12196.999999999998,Square Feet,255300.0,28.376553,-80.74178,46.0,550.0,False,0.0,False,False,Single Family Residence,www.zillow.com/homedetails/902-Kensington-Dr-Cocoa-FL-32922/43408663_zpid/,141.66666666666666
414,43389247,SINGLE_FAMILY,RECENTLY_SOLD,2023-11-02,104,0,170000.0,7420 Glenwood Rd,32927,1985,2.0,4.0,2295.0,Square Feet,10018.0,Square Feet,210500.0,28.488813,-80.801414,0.0,20.0,False,0.0,False,False,nan,www.zillow.com/homedetails/7420-Glenwood-Rd-Cocoa-FL-32927/43389247_zpid/,74.07407407407408
371,43483846,SINGLE_FAMILY,RECENTLY_SOLD,2023-11-14,19,0,170000.0,905 Locust Ave NW,32907,1984,2.0,3.0,1008.0,Square Feet,11761.2,Square Feet,271200.0,28.02152,-80.704956,57.0,625.0,False,0.0,False,False,Single Family Residence,www.zillow.com/homedetails/905-Locust-Ave-NW-Palm-Bay-FL-32907/43483846_zpid/,168.65079365079364
641,43412389,SINGLE_FAMILY,RECENTLY_SOLD,2023-09-21,146,0,170000.0,1209 Dixon Blvd,32922,1958,2.0,3.0,1244.0,Square Feet,8276.4,Square Feet,171800.0,28.372822,-80.74801,0.0,13.0,False,0.0,False,False,Single Family Residence,www.zillow.com/homedetails/1209-Dixon-Blvd-Cocoa-FL-32922/43412389_zpid/,136.65594855305466
387,43451430,SINGLE_FAMILY,RECENTLY_SOLD,2023-11-08,98,0,170000.0,4057 N Highway 1,32935,1955,1.0,2.0,912.0,Square Feet,10018.0,Square Feet,171300.0,28.17308,-80.6473,0.0,12.0,False,0.0,False,False,nan,www.zillow.com/homedetails/4057-N-Highway-1-Melbourne-FL-32935/43451430_zpid/,186.40350877192984
290,43402198,SINGLE_FAMILY,RECENTLY_SOLD,2023-12-01,75,0,170700.0,3855 Fenner Rd,32926,1973,2.0,3.0,1593.0,Square Feet,104544.0,Square Feet,171600.0,28.366817,-80.78028,0.0,9.0,False,0.0,False,False,nan,www.zillow.com/homedetails/3855-Fenner-Rd-Cocoa-FL-32926/43402198_zpid/,107.15630885122411
580,43489164,SINGLE_FAMILY,RECENTLY_SOLD,2023-10-02,3,0,171300.0,2701 Whistler St,32904,2001,2.0,4.0,2173.0,Square Feet,9147.6,Square Feet,171300.0,28.059958,-80.65854,34.0,508.0,False,31.0,False,False,Single Family Residence,www.zillow.com/homedetails/2701-Whistler-St-West-Melbourne-FL-32904/43489164_zpid/,78.83110906580764
182,43394540,SINGLE_FAMILY,RECENTLY_SOLD,2023-12-28,48,0,172000.0,4640 Olympic Dr,32927,1980,2.0,3.0,1416.0,Square Feet,10018.8,Square Feet,213900.0,28.47057,-80.796425,2.0,35.0,False,0.0,False,False,Single Family Residence,www.zillow.com/homedetails/4640-Olympic-Dr-Cocoa-FL-32927/43394540_zpid/,121.46892655367232
269,43487456,SINGLE_FAMILY,RECENTLY_SOLD,2023-12-07,69,0,172000.0,745 Bonnie Cir,32901,1952,2.0,2.0,1224.0,Square Feet,12196.799999999996,Square Feet,172000.0,28.082752,-80.632065,0.0,36.0,False,0.0,False,False,Single Family Residence,www.zillow.com/homedetails/745-Bonnie-Cir-Melbourne-FL-32901/43487456_zpid/,140.52287581699346
318,43414329,SINGLE_FAMILY,RECENTLY_SOLD,2023-11-28,78,0,172000.0,1139 Grove Ave,32922,1960,1.0,3.0,850.0,Square Feet,6534.0,Square Feet,172900.0,28.35916,-80.74636,0.0,11.0,False,0.0,False,False,Single Family Residence,www.zillow.com/homedetails/1139-Grove-Ave-Cocoa-FL-32922/43414329_zpid/,202.35294117647058
50,43469860,SINGLE_FAMILY,RECENTLY_SOLD,2024-01-30,15,0,172000.0,2695 Kefauver St,32935,1964,2.0,4.0,1320.0,Square Feet,8276.0,Square Feet,172200.0,28.125784,-80.66682,1.0,61.0,False,0.0,False,False,nan,www.zillow.com/homedetails/2695-Kefauver-St-Melbourne-FL-32935/43469860_zpid/,130.3030303030303
67,43413838,SINGLE_FAMILY,RECENTLY_SOLD,2024-01-25,20,0,172000.0,2481 Victor Rd,32926,1964,2.0,3.0,1212.0,Square Feet,7840.8,Square Feet,172000.0,28.363901,-80.77032,2.0,79.0,False,0.0,False,False,Single Family Residence,www.zillow.com/homedetails/2481-Victor-Rd-Cocoa-FL-32926/43413838_zpid/,141.9141914191419
633,43408577,SINGLE_FAMILY,RECENTLY_SOLD,2023-09-22,57,0,172000.0,1320 Audubon Dr,32922,1958,2.0,3.0,1590.0,Square Feet,9147.6,Square Feet,281900.0,28.375027,-80.7454,54.0,864.0,False,0.0,False,False,Single Family Residence,www.zillow.com/homedetails/1320-Audubon-Dr-Cocoa-FL-32922/43408577_zpid/,108.17610062893081
435,43508940,SINGLE_FAMILY,RECENTLY_SOLD,2023-10-31,106,0,172450.0,170 Whirl St SW,32908,1983,1.0,2.0,840.0,Square Feet,10454.4,Square Feet,172450.0,27.991577,-80.674324,0.0,11.0,False,0.0,True,False,Single Family Residence,www.zillow.com/homedetails/170-Whirl-St-SW-Palm-Bay-FL-32908/43508940_zpid/,205.29761904761904
256,43487265,SINGLE_FAMILY,RECENTLY_SOLD,2023-12-11,65,0,172500.0,1704 Park Ave,32901,1952,1.0,2.0,800.0,Square Feet,6969.0,Square Feet,173400.0,28.081919,-80.62528,0.0,8.0,False,0.0,False,False,nan,www.zillow.com/homedetails/1704-Park-Ave-Melbourne-FL-32901/43487265_zpid/,215.625
84,43379906,SINGLE_FAMILY,RECENTLY_SOLD,2024-01-22,23,0,173000.0,520 S Sunrise Dr,32780,1964,2.0,3.0,1204.0,Square Feet,7405.0,Square Feet,173000.0,28.584026,-80.80755,0.0,102.0,False,0.0,True,False,Single Family Residence,www.zillow.com/homedetails/520-S-Sunrise-Dr-Titusville-FL-32780/43379906_zpid/,143.68770764119603
544,43372462,SINGLE_FAMILY,RECENTLY_SOLD,2023-10-10,127,0,174000.0,3430 Daryl Ter,32796,1967,2.0,4.0,1248.0,Square Feet,9147.6,Square Feet,175600.0,28.646412,-80.84784,0.0,2.0,False,0.0,False,False,Single Family Residence,www.zillow.com/homedetails/3430-Daryl-Ter-Titusville-FL-32796/43372462_zpid/,139.42307692307693
152,63471905,SINGLE_FAMILY,RECENTLY_SOLD,2024-01-05,40,0,174500.0,3646 Magoon Ave,32754,1977,2.0,2.0,1412.0,Square Feet,19166.0,Square Feet,253900.0,28.766909,-80.873146,0.0,15.0,False,0.0,False,False,nan,www.zillow.com/homedetails/3646-Magoon-Ave-Mims-FL-32754/63471905_zpid/,123.58356940509915
304,43475128,SINGLE_FAMILY,RECENTLY_SOLD,2023-11-30,76,0,175000.0,103 E Avenue D,32901,1964,2.0,3.0,1650.0,Square Feet,11324.999999999998,Square Feet,275900.0,28.103249,-80.61932,0.0,7.0,False,0.0,False,False,nan,www.zillow.com/homedetails/103-E-Avenue-D-Melbourne-FL-32901/43475128_zpid/,106.06060606060606
285,43488146,SINGLE_FAMILY,RECENTLY_SOLD,2023-12-04,72,0,175000.0,56 NW Shannon Ave,32904,1953,1.0,2.0,783.0,Square Feet,12632.4,Square Feet,225800.0,28.079773,-80.640045,0.0,12.0,False,0.0,False,False,Single Family Residence,www.zillow.com/homedetails/56-NW-Shannon-Ave-West-Melbourne-FL-32904/43488146_zpid/,223.4993614303959
483,43483123,SINGLE_FAMILY,RECENTLY_SOLD,2023-10-23,114,0,175000.0,1337 Gilpin St NW,32907,1987,2.0,3.0,1066.0,Square Feet,10018.0,Square Feet,176500.0,28.027712,-80.710495,0.0,5.0,False,0.0,False,False,nan,www.zillow.com/homedetails/1337-Gilpin-St-NW-Palm-Bay-FL-32907/43483123_zpid/,164.16510318949344
605,43498710,SINGLE_FAMILY,RECENTLY_SOLD,2023-09-28,139,0,175000.0,720 Becker Ave NE,32905,1991,2.0,3.0,1770.0,Square Feet,11324.999999999998,Square Feet,176700.0,28.014599,-80.61319,0.0,6.0,False,0.0,False,False,nan,www.zillow.com/homedetails/720-Becker-Ave-NE-Palm-Bay-FL-32905/43498710_zpid/,98.87005649717514
231,43412071,SINGLE_FAMILY,RECENTLY_SOLD,2023-12-15,61,0,175000.0,107 Grimes St,32922,1965,1.0,1.0,546.0,Square Feet,3049.0,Square Feet,175700.0,28.364677,-80.73314,0.0,13.0,False,0.0,False,False,"Apartment', 'Single Family Residence",www.zillow.com/homedetails/107-Grimes-St-Cocoa-FL-32922/43412071_zpid/,320.5128205128205
346,43408291,SINGLE_FAMILY,RECENTLY_SOLD,2023-11-17,89,0,175000.0,1522 Licht St,32922,1956,1.0,2.0,832.0,Square Feet,14374.799999999996,Square Feet,176100.0,28.380934,-80.75367,0.0,14.0,False,0.0,False,False,Single Family Residence,www.zillow.com/homedetails/1522-Licht-St-Cocoa-FL-32922/43408291_zpid/,210.33653846153845
589,43468494,SINGLE_FAMILY,RECENTLY_SOLD,2023-09-29,138,1,175000.0,2592 Leewood Blvd,32935,1963,2.0,3.0,1265.0,Square Feet,7840.0,Square Feet,176700.0,28.13211,-80.66481,0.0,5.0,False,0.0,False,False,nan,www.zillow.com/homedetails/2592-Leewood-Blvd-Melbourne-FL-32935/43468494_zpid/,138.3399209486166
461,43460737,SINGLE_FAMILY,RECENTLY_SOLD,2023-10-26,111,0,175000.0,3256 Kent Dr,32935,1977,2.5,3.0,1876.0,Square Feet,10454.0,Square Feet,352100.0,28.159697,-80.64777,0.0,11.0,False,0.0,False,False,nan,www.zillow.com/homedetails/3256-Kent-Dr-Melbourne-FL-32935/43460737_zpid/,93.28358208955224
632,43403188,SINGLE_FAMILY,RECENTLY_SOLD,2023-09-22,145,0,175000.0,413 Lincoln Rd,32926,1960,1.0,3.0,1075.0,Square Feet,6098.4,Square Feet,176800.0,28.355303,-80.7896,0.0,10.0,False,0.0,False,False,Single Family Residence,www.zillow.com/homedetails/413-Lincoln-Rd-Cocoa-FL-32926/43403188_zpid/,162.7906976744186
423,43497455,SINGLE_FAMILY,RECENTLY_SOLD,2023-11-01,105,0,175000.0,801 Faith St NE,32905,1973,2.0,3.0,1421.0,Square Feet,10454.0,Square Feet,249900.0,28.015411,-80.58304,0.0,23.0,False,0.0,False,False,nan,www.zillow.com/homedetails/801-Faith-St-NE-Palm-Bay-FL-32905/43497455_zpid/,123.15270935960591
384,43379122,SINGLE_FAMILY,RECENTLY_SOLD,2023-11-09,97,0,175000.0,2245 White Sands Dr,32780,1970,2.0,3.0,1012.0,Square Feet,8276.4,Square Feet,176500.0,28.588942,-80.81841,0.0,12.0,False,0.0,False,False,Single Family Residence,www.zillow.com/homedetails/2245-White-Sands-Dr-Titusville-FL-32780/43379122_zpid/,172.92490118577075
301,43399899,SINGLE_FAMILY,RECENTLY_SOLD,2023-11-30,76,1,175000.0,5220 Mango Ave,32926,1982,2.0,3.0,1200.0,Square Feet,43560.0,Square Feet,176200.0,28.407007,-80.831406,0.0,23.0,False,0.0,False,False,Single Family Residence,www.zillow.com/homedetails/5220-Mango-Ave-Cocoa-FL-32926/43399899_zpid/,145.83333333333334
139,43415259,SINGLE_FAMILY,RECENTLY_SOLD,2024-01-08,37,0,175000.0,25 South St,32955,1914,1.0,2.0,771.0,Square Feet,12196.799999999996,Square Feet,170500.0,28.349077,-80.72529,0.0,43.0,False,0.0,False,False,Single Family Residence,www.zillow.com/homedetails/25-South-St-Rockledge-FL-32955/43415259_zpid/,226.97795071335926
161,54616318,SINGLE_FAMILY,RECENTLY_SOLD,2024-01-03,42,0,175000.0,690 Lorraine Dr,32935,1958,2.0,3.0,1385.0,Square Feet,10890.0,Square Feet,296800.0,28.1099,-80.62941,0.0,18.0,False,0.0,False,False,nan,www.zillow.com/homedetails/690-Lorraine-Dr-Melbourne-FL-32935/54616318_zpid/,126.35379061371842
547,43469506,SINGLE_FAMILY,RECENTLY_SOLD,2023-10-09,128,0,175000.0,2478 Burns Ave,32935,1958,1.0,2.0,816.0,Square Feet,6534.0,Square Feet,176600.0,28.12263,-80.66253,0.0,7.0,False,0.0,False,False,nan,www.zillow.com/homedetails/2478-Burns-Ave-Melbourne-FL-32935/43469506_zpid/,214.4607843137255
443,43407328,SINGLE_FAMILY,RECENTLY_SOLD,2023-10-30,107,0,175100.0,2526 Suwannee Dr,32926,1966,2.0,3.0,1161.0,Square Feet,8712.0,Square Feet,258600.0,28.388288,-80.76521,0.0,14.0,False,0.0,False,False,nan,www.zillow.com/homedetails/2526-Suwannee-Dr-Cocoa-FL-32926/43407328_zpid/,150.8182601205857
431,43485499,SINGLE_FAMILY,RECENTLY_SOLD,2023-10-31,15,0,175500.0,406 Carolina Ave NW,32907,1999,2.0,3.0,1544.0,Square Feet,10018.8,Square Feet,175500.0,28.007248,-80.69908,123.0,3705.0,False,0.0,True,False,Single Family Residence,www.zillow.com/homedetails/406-Carolina-Ave-NW-Palm-Bay-FL-32907/43485499_zpid/,113.66580310880829
471,43487585,SINGLE_FAMILY,RECENTLY_SOLD,2023-10-25,112,1,176000.0,1817 Palm Blvd,32901,1963,3.0,4.0,2434.0,Square Feet,10454.4,Square Feet,182100.0,28.08131,-80.634,0.0,29.0,False,0.0,False,False,Single Family Residence,www.zillow.com/homedetails/1817-Palm-Blvd-Melbourne-FL-32901/43487585_zpid/,72.3089564502876
421,43408304,SINGLE_FAMILY,RECENTLY_SOLD,2023-11-01,105,0,177000.0,1529 Mac Arthur Ln,32922,1965,2.0,3.0,825.0,Square Feet,4356.0,Square Feet,178600.0,28.381147,-80.75361,0.0,21.0,False,0.0,False,False,Single Family Residence,www.zillow.com/homedetails/1529-Mac-Arthur-Ln-Cocoa-FL-32922/43408304_zpid/,214.54545454545453
440,43385578,SINGLE_FAMILY,RECENTLY_SOLD,2023-10-30,107,0,178000.0,4805 Pasco Ave,32780,1966,2.0,3.0,1772.0,Square Feet,7840.8,Square Feet,183100.0,28.55503,-80.8277,0.0,13.0,False,0.0,False,False,Single Family Residence,www.zillow.com/homedetails/4805-Pasco-Ave-Titusville-FL-32780/43385578_zpid/,100.45146726862302
484,43486383,SINGLE_FAMILY,RECENTLY_SOLD,2023-10-23,114,0,178000.0,431 Mercer St NW,32907,1984,1.0,2.0,875.0,Square Feet,10018.0,Square Feet,179500.0,28.000454,-80.68236,0.0,6.0,False,0.0,False,False,nan,www.zillow.com/homedetails/431-Mercer-St-NW-Palm-Bay-FL-32907/43486383_zpid/,203.42857142857142
418,54601925,SINGLE_FAMILY,RECENTLY_SOLD,2023-11-02,104,0,178000.0,3646 W Powder Horn Rd,32796,1981,2.0,3.0,1104.0,Square Feet,7840.0,Square Feet,272600.0,28.640648,-80.85449,17.0,261.0,False,0.0,False,False,nan,www.zillow.com/homedetails/3646-W-Powder-Horn-Rd-Titusville-FL-32796/54601925_zpid/,161.231884057971
481,43468492,SINGLE_FAMILY,RECENTLY_SOLD,2023-10-23,114,0,179000.0,2568 Leewood Blvd,32935,1963,2.0,3.0,1328.0,Square Feet,7840.0,Square Feet,180500.0,28.132113,-80.664345,1.0,22.0,False,0.0,False,False,nan,www.zillow.com/homedetails/2568-Leewood-Blvd-Melbourne-FL-32935/43468492_zpid/,134.789156626506
447,43510448,SINGLE_FAMILY,RECENTLY_SOLD,2023-10-30,107,0,180000.0,791 De Groodt Rd SW,32908,1986,1.0,2.0,816.0,Square Feet,10018.8,Square Feet,181400.0,27.980362,-80.674225,0.0,13.0,False,0.0,False,False,Single Family Residence,www.zillow.com/homedetails/791-De-Groodt-Rd-SW-Palm-Bay-FL-32908/43510448_zpid/,220.58823529411765
600,43403759,SINGLE_FAMILY,RECENTLY_SOLD,2023-09-28,139,0,180000.0,501 Clarke St,32926,1965,1.0,2.0,808.0,Square Feet,10018.8,Square Feet,181800.0,28.34674,-80.78533,0.0,8.0,False,0.0,False,False,Single Family Residence,www.zillow.com/homedetails/501-Clarke-St-Cocoa-FL-32926/43403759_zpid/,222.77227722772278
45,43496622,SINGLE_FAMILY,RECENTLY_SOLD,2024-01-31,14,0,180000.0,921 Burn Dr NE,32905,1973,2.0,4.0,1316.0,Square Feet,9583.0,Square Feet,257400.0,28.019571,-80.5758,0.0,67.0,False,0.0,False,False,nan,www.zillow.com/homedetails/921-Burn-Dr-NE-Palm-Bay-FL-32905/43496622_zpid/,136.77811550151975
47,52525085,SINGLE_FAMILY,RECENTLY_SOLD,2024-01-31,14,0,180000.0,1014 Hooper Ave NE,32905,1980,2.0,3.0,1315.0,Square Feet,11999.999999999998,Square Feet,277900.0,28.0234,-80.62691,1.0,40.0,False,0.0,False,False,Detached Home,www.zillow.com/homedetails/1014-Hooper-Ave-NE-Palm-Bay-FL-32905/52525085_zpid/,136.88212927756655
491,43411433,SINGLE_FAMILY,RECENTLY_SOLD,2023-10-20,117,0,180000.0,611 5th St,32953,1959,1.0,3.0,992.0,Square Feet,7405.2,Square Feet,184000.0,28.36278,-80.69381,1.0,7.0,False,0.0,False,False,Single Family Residence,www.zillow.com/homedetails/611-5th-St-Merritt-Island-FL-32953/43411433_zpid/,181.4516129032258
140,43435480,SINGLE_FAMILY,RECENTLY_SOLD,2024-01-08,37,0,180000.0,750 Newfound Harbor Dr,32952,1950,1.0,2.0,867.0,Square Feet,12631.999999999998,Square Feet,225300.0,28.344196,-80.66487,0.0,9.0,False,0.0,False,False,nan,www.zillow.com/homedetails/750-Newfound-Harbor-Dr-Merritt-Island-FL-32952/43435480_zpid/,207.61245674740485
142,43471123,SINGLE_FAMILY,RECENTLY_SOLD,2024-01-08,37,0,180000.0,1792 Jackson Ave,32935,1959,2.0,3.0,1134.0,Square Feet,9147.0,Square Feet,273600.0,28.126345,-80.64997,0.0,32.0,False,0.0,False,False,nan,www.zillow.com/homedetails/1792-Jackson-Ave-Melbourne-FL-32935/43471123_zpid/,158.73015873015873
586,43410955,SINGLE_FAMILY,RECENTLY_SOLD,2023-09-29,138,0,180000.0,160 Citrus Blvd,32953,1965,2.0,3.0,1071.0,Square Feet,8712.0,Square Feet,314400.0,28.368933,-80.703835,58.0,584.0,False,0.0,False,False,nan,www.zillow.com/homedetails/160-Citrus-Blvd-Merritt-Island-FL-32953/43410955_zpid/,168.0672268907563
265,43518019,SINGLE_FAMILY,RECENTLY_SOLD,2023-12-08,13,0,180000.0,1067 Pappas Rd SE,32909,1989,2.0,3.0,1136.0,Square Feet,10454.4,Square Feet,262100.0,27.936008,-80.64126,1.0,76.0,False,0.0,False,False,Single Family Residence,www.zillow.com/homedetails/1067-Pappas-Rd-SE-Palm-Bay-FL-32909/43518019_zpid/,158.45070422535213
240,43451090,SINGLE_FAMILY,RECENTLY_SOLD,2023-12-14,12,1,180000.0,2613 Coventry Rd,32935,1959,2.0,3.0,912.0,Square Feet,7840.8,Square Feet,263900.0,28.17265,-80.66574,100.0,1656.0,False,0.0,False,False,Single Family Residence,www.zillow.com/homedetails/2613-Coventry-Rd-Melbourne-FL-32935/43451090_zpid/,197.3684210526316
358,43497270,SINGLE_FAMILY,RECENTLY_SOLD,2023-11-16,90,0,180000.0,3067 Inwood Ct NE,32905,1961,1.0,3.0,1210.0,Square Feet,7840.8,Square Feet,180000.0,28.018204,-80.57859,0.0,18.0,False,0.0,False,False,Single Family Residence,www.zillow.com/homedetails/3067-Inwood-Ct-NE-Palm-Bay-FL-32905/43497270_zpid/,148.7603305785124
104,43378517,SINGLE_FAMILY,RECENTLY_SOLD,2024-01-17,28,0,180000.0,1320 Dozier Ave,32780,1959,2.0,3.0,1624.0,Square Feet,8712.0,Square Feet,198500.0,28.599617,-80.82234,1.0,110.0,False,0.0,False,False,Single Family Residence,www.zillow.com/homedetails/1320-Dozier-Ave-Titusville-FL-32780/43378517_zpid/,110.83743842364532
306,43482278,SINGLE_FAMILY,RECENTLY_SOLD,2023-11-30,76,0,180000.0,1117 Pace Dr NW,32907,1987,2.0,3.0,1463.0,Square Feet,10018.0,Square Feet,299200.0,28.017237,-80.703026,0.0,15.0,False,0.0,False,False,nan,www.zillow.com/homedetails/1117-Pace-Dr-NW-Palm-Bay-FL-32907/43482278_zpid/,123.03485987696514
79,43508909,SINGLE_FAMILY,RECENTLY_SOLD,2024-01-23,22,0,180000.0,180 San Luis St SW,32908,1983,2.0,3.0,896.0,Square Feet,10018.8,Square Feet,180100.0,27.992401,-80.67358,1.0,105.0,False,0.0,False,False,Single Family Residence,www.zillow.com/homedetails/180-San-Luis-St-SW-Palm-Bay-FL-32908/43508909_zpid/,200.89285714285714
344,54620174,SINGLE_FAMILY,RECENTLY_SOLD,2023-11-20,86,0,180000.0,821 Salina St SE,32909,1997,2.0,3.0,1189.0,Square Feet,22651.0,Square Feet,181100.0,27.969357,-80.64821,0.0,9.0,False,0.0,False,False,nan,www.zillow.com/homedetails/821-Salina-St-SE-Palm-Bay-FL-32909/54620174_zpid/,151.38772077375947
614,43373265,SINGLE_FAMILY,RECENTLY_SOLD,2023-09-26,141,0,180000.0,1215 Crescent Dr,32796,1965,2.0,3.0,1010.0,Square Feet,10454.0,Square Feet,254300.0,28.632792,-80.84652,0.0,2.0,False,0.0,False,False,nan,www.zillow.com/homedetails/1215-Crescent-Dr-Titusville-FL-32796/43373265_zpid/,178.21782178217822
241,54615713,SINGLE_FAMILY,RECENTLY_SOLD,2023-12-14,5,0,180000.0,1219 Garfield St,32935,1963,2.0,3.0,1176.0,Square Feet,8276.4,Square Feet,271200.0,28.1268,-80.64947,150.0,1319.0,False,0.0,False,False,Single Family Residence,www.zillow.com/homedetails/1219-Garfield-St-Melbourne-FL-32935/54615713_zpid/,153.0612244897959
89,43383332,SINGLE_FAMILY,RECENTLY_SOLD,2024-01-19,26,0,180500.0,4465 Swift Ave,32780,1960,2.0,3.0,1165.0,Square Feet,7840.8,Square Feet,243000.0,28.560892,-80.81559,0.0,72.0,False,0.0,False,False,Single Family Residence,www.zillow.com/homedetails/4465-Swift-Ave-Titusville-FL-32780/43383332_zpid/,154.93562231759657
17,43491371,SINGLE_FAMILY,RECENTLY_SOLD,2024-02-07,358,0,181000.0,506 Walker St,32901,1964,2.0,3.0,1789.0,Square Feet,16116.999999999998,Square Feet,181000.0,28.065094,-80.6124,2.0,202.0,False,0.0,True,False,Single Family Residence,www.zillow.com/homedetails/506-Walker-St-Melbourne-FL-32901/43491371_zpid/,101.17384013415315
558,43491667,SINGLE_FAMILY,RECENTLY_SOLD,2023-10-06,131,0,182000.0,805 Cedar Dr,32901,1969,1.0,3.0,1000.0,Square Feet,6534.0,Square Feet,183700.0,28.058659,-80.60713,1.0,19.0,False,0.0,False,False,Single Family Residence,www.zillow.com/homedetails/805-Cedar-Dr-Melbourne-FL-32901/43491667_zpid/,182.0
399,43373563,SINGLE_FAMILY,RECENTLY_SOLD,2023-11-06,100,0,182000.0,1101 Titus Ave,32796,1959,2.0,3.0,1400.0,Square Feet,8276.4,Square Feet,183600.0,28.630789,-80.8326,0.0,16.0,False,0.0,False,False,Single Family Residence,www.zillow.com/homedetails/1101-Titus-Ave-Titusville-FL-32796/43373563_zpid/,130.0
569,43375045,SINGLE_FAMILY,RECENTLY_SOLD,2023-10-04,20,0,182600.0,609 Ward Ave,32796,1967,2.0,3.0,1200.0,Square Feet,7405.0,Square Feet,295500.0,28.62247,-80.84879,48.0,742.0,False,0.0,False,False,Single Family Residence,www.zillow.com/homedetails/609-Ward-Ave-Titusville-FL-32796/43375045_zpid/,152.16666666666666
472,43375825,SINGLE_FAMILY,RECENTLY_SOLD,2023-10-24,113,0,183000.0,180 N Hilltop Dr,32796,1958,2.0,3.0,1084.0,Square Feet,10454.4,Square Feet,184500.0,28.617588,-80.83727,0.0,10.0,False,0.0,False,False,Single Family Residence,www.zillow.com/homedetails/180-N-Hilltop-Dr-Titusville-FL-32796/43375825_zpid/,168.81918819188192
25,43375447,SINGLE_FAMILY,RECENTLY_SOLD,2024-02-02,12,0,183500.0,2937 Cooper Dr,32796,1965,2.0,3.0,1266.0,Square Feet,7405.2,Square Feet,183600.0,28.62809,-80.8416,19.0,380.0,False,0.0,True,False,Single Family Residence,www.zillow.com/homedetails/2937-Cooper-Dr-Titusville-FL-32796/43375447_zpid/,144.94470774091627
19,52640731,SINGLE_FAMILY,RECENTLY_SOLD,2024-02-06,8,0,184000.0,2809 Hessey Ave NE,32905,1956,3.0,3.0,1715.0,Square Feet,36154.8,Square Feet,184000.0,28.036295,-80.588135,6.0,277.0,False,0.0,False,False,Single Family Residence,www.zillow.com/homedetails/2809-Hessey-Ave-NE-Palm-Bay-FL-32905/52640731_zpid/,107.28862973760933
367,54617707,SINGLE_FAMILY,RECENTLY_SOLD,2023-11-15,91,0,184000.0,2707 Palm Dr NE,32905,1956,2.0,3.0,1026.0,Square Feet,14374.799999999996,Square Feet,185300.0,28.04584,-80.58888,0.0,13.0,False,0.0,False,False,Single Family Residence,www.zillow.com/homedetails/2707-Palm-Dr-NE-Palm-Bay-FL-32905/54617707_zpid/,179.33723196881093
286,43504049,SINGLE_FAMILY,RECENTLY_SOLD,2023-12-04,72,0,185000.0,1662 Charles Blvd NE,32907,1995,2.0,3.0,1306.0,Square Feet,12196.0,Square Feet,294800.0,28.004177,-80.62357,0.0,9.0,False,0.0,False,False,nan,www.zillow.com/homedetails/1662-Charles-Blvd-NE-Palm-Bay-FL-32907/43504049_zpid/,141.65390505359878
622,43496360,SINGLE_FAMILY,RECENTLY_SOLD,2023-09-26,141,0,185000.0,1146 Abbey Cir NE,32905,1973,2.0,3.0,1298.0,Square Feet,9583.2,Square Feet,181300.0,28.02471,-80.577934,1.0,31.0,False,0.0,False,False,Single Family Residence,www.zillow.com/homedetails/1146-Abbey-Cir-NE-Palm-Bay-FL-32905/43496360_zpid/,142.52696456086287
292,43414119,SINGLE_FAMILY,RECENTLY_SOLD,2023-12-01,75,0,185000.0,1337 S Stetson Dr,32922,1963,2.0,3.0,1188.0,Square Feet,8712.0,Square Feet,186000.0,28.373514,-80.7652,0.0,6.0,False,0.0,False,False,nan,www.zillow.com/homedetails/1337-S-Stetson-Dr-Cocoa-FL-32922/43414119_zpid/,155.72390572390572
133,43497044,SINGLE_FAMILY,RECENTLY_SOLD,2024-01-10,35,0,185000.0,710 Abeto St NE,32905,1973,2.0,2.0,1636.0,Square Feet,7840.8,Square Feet,235600.0,28.014164,-80.57711,0.0,22.0,False,0.0,False,False,Single Family Residence,www.zillow.com/homedetails/710-Abeto-St-NE-Palm-Bay-FL-32905/43497044_zpid/,113.08068459657702
506,43495975,SINGLE_FAMILY,RECENTLY_SOLD,2023-10-18,119,0,185000.0,1225 Bonita Ct NE,32905,1973,2.0,2.0,1323.0,Square Feet,10890.0,Square Feet,186600.0,28.027512,-80.58112,0.0,11.0,False,0.0,False,False,Single Family Residence,www.zillow.com/homedetails/1225-Bonita-Ct-NE-Palm-Bay-FL-32905/43495975_zpid/,139.8337112622827
579,43371876,SINGLE_FAMILY,RECENTLY_SOLD,2023-10-02,135,0,185000.0,2128 Rudge Dr,32754,1980,1.0,3.0,984.0,Square Feet,7840.0,Square Feet,208600.0,28.656223,-80.86171,14.0,231.0,False,0.0,False,False,nan,www.zillow.com/homedetails/2128-Rudge-Dr-Mims-FL-32754/43371876_zpid/,188.0081300813008
587,43414938,SINGLE_FAMILY,RECENTLY_SOLD,2023-09-29,138,1,185000.0,346 Pomolo St,32922,1963,1.0,2.0,813.0,Square Feet,4356.0,Square Feet,186800.0,28.353823,-80.73366,0.0,7.0,False,0.0,False,False,Single Family Residence,www.zillow.com/homedetails/346-Pomolo-St-Cocoa-FL-32922/43414938_zpid/,227.55227552275522
212,43495586,SINGLE_FAMILY,RECENTLY_SOLD,2023-12-21,55,0,185000.0,1576 Magnolia St NE,32905,1979,2.0,3.0,1408.0,Square Feet,7405.2,Square Feet,186200.0,28.037325,-80.58926,3.0,83.0,False,0.0,False,False,Single Family Residence,www.zillow.com/homedetails/1576-Magnolia-St-NE-Palm-Bay-FL-32905/43495586_zpid/,131.39204545454547
187,43471366,SINGLE_FAMILY,RECENTLY_SOLD,2023-12-28,10,0,185000.0,1651 Arthur Ave,32935,1960,2.0,3.0,988.0,Square Feet,7840.8,Square Feet,262600.0,28.123,-80.64716,45.0,1063.0,False,0.0,False,False,Single Family Residence,www.zillow.com/homedetails/1651-Arthur-Ave-Melbourne-FL-32935/43471366_zpid/,187.24696356275302
94,43429481,SINGLE_FAMILY,RECENTLY_SOLD,2024-01-19,26,0,185500.0,7 Knollwood Dr,32955,1964,2.0,3.0,1480.0,Square Feet,9583.2,Square Feet,185500.0,28.323494,-80.71235,2.0,105.0,False,0.0,True,False,Single Family Residence,www.zillow.com/homedetails/7-Knollwood-Dr-Rockledge-FL-32955/43429481_zpid/,125.33783783783784
230,43403519,SINGLE_FAMILY,RECENTLY_SOLD,2023-12-15,61,0,186500.0,3782 Catalina Dr,32926,1964,2.0,3.0,1404.0,Square Feet,8712.0,Square Feet,187800.0,28.349234,-80.78327,0.0,0.0,False,0.0,False,False,Single Family Residence,www.zillow.com/homedetails/3782-Catalina-Dr-Cocoa-FL-32926/43403519_zpid/,132.83475783475782
513,43480078,SINGLE_FAMILY,RECENTLY_SOLD,2023-10-17,35,0,187000.0,1681 Vallee St NW,32907,1990,2.0,2.0,1316.0,Square Feet,10018.8,Square Feet,285500.0,28.038363,-80.71922,22.0,310.0,False,0.0,False,False,Single Family Residence,www.zillow.com/homedetails/1681-Vallee-St-NW-Palm-Bay-FL-32907/43480078_zpid/,142.09726443768997
272,66682734,SINGLE_FAMILY,RECENTLY_SOLD,2023-12-07,69,0,189000.0,541 Avocado Rd NW,32907,2004,2.0,3.0,1404.0,Square Feet,10454.0,Square Feet,297900.0,28.011686,-80.67881,0.0,5.0,False,0.0,False,False,nan,www.zillow.com/homedetails/541-Avocado-Rd-NW-Palm-Bay-FL-32907/66682734_zpid/,134.6153846153846
98,43501980,SINGLE_FAMILY,RECENTLY_SOLD,2024-01-19,26,0,189000.0,159 Copenhaver Ave NE,32907,1985,2.0,3.0,1462.0,Square Feet,10018.8,Square Feet,189200.0,28.001581,-80.65706,0.0,59.0,False,0.0,False,False,Single Family Residence,www.zillow.com/homedetails/159-Copenhaver-Ave-NE-Palm-Bay-FL-32907/43501980_zpid/,129.2749658002736
183,43427865,SINGLE_FAMILY,RECENTLY_SOLD,2023-12-28,48,0,189100.0,1713 Fenway Cir,32955,1967,2.0,3.0,1503.0,Square Feet,8712.0,Square Feet,289200.0,28.329233,-80.748375,0.0,22.0,False,0.0,False,False,nan,www.zillow.com/homedetails/1713-Fenway-Cir-Rockledge-FL-32955/43427865_zpid/,125.8150365934797
60,43414464,SINGLE_FAMILY,RECENTLY_SOLD,2024-01-26,19,0,189900.0,118 Explorer St,32922,1959,1.0,3.0,864.0,Square Feet,7405.2,Square Feet,190000.0,28.353867,-80.747765,0.0,45.0,False,0.0,False,False,Single Family Residence,www.zillow.com/homedetails/118-Explorer-St-Cocoa-FL-32922/43414464_zpid/,219.79166666666666
615,43392934,SINGLE_FAMILY,RECENTLY_SOLD,2023-09-26,141,1,190000.0,5769 Jamaica Rd,32927,1983,1.0,2.0,1000.0,Square Feet,10018.0,Square Feet,191900.0,28.461386,-80.81701,0.0,12.0,False,0.0,False,False,nan,www.zillow.com/homedetails/5769-Jamaica-Rd-Cocoa-FL-32927/43392934_zpid/,190.0
635,43463373,SINGLE_FAMILY,RECENTLY_SOLD,2023-09-22,145,0,190000.0,1077 Riverdale Dr,32935,1954,1.0,2.0,768.0,Square Feet,4791.0,Square Feet,230200.0,28.148209,-80.63699,0.0,13.0,False,0.0,False,False,nan,www.zillow.com/homedetails/1077-Riverdale-Dr-Melbourne-FL-32935/43463373_zpid/,247.39583333333334
333,43427071,SINGLE_FAMILY,RECENTLY_SOLD,2023-11-21,85,0,190000.0,1044 Marlin Dr,32955,1968,2.0,3.0,1464.0,Square Feet,7840.8,Square Feet,191200.0,28.343676,-80.74746,0.0,30.0,False,0.0,False,False,Single Family Residence,www.zillow.com/homedetails/1044-Marlin-Dr-Rockledge-FL-32955/43427071_zpid/,129.78142076502732
153,43415197,SINGLE_FAMILY,RECENTLY_SOLD,2024-01-04,41,0,190000.0,128 Saint Charles St,32922,1953,1.0,2.0,748.0,Square Feet,4791.6,Square Feet,190800.0,28.352053,-80.729034,1.0,32.0,False,0.0,False,False,Single Family Residence,www.zillow.com/homedetails/128-Saint-Charles-St-Cocoa-FL-32922/43415197_zpid/,254.01069518716577
406,43408503,SINGLE_FAMILY,RECENTLY_SOLD,2023-11-03,103,1,190000.0,124 S Indian Cir,32922,1956,2.0,3.0,1606.0,Square Feet,10454.4,Square Feet,191500.0,28.38191,-80.73964,0.0,5.0,False,0.0,False,False,Single Family Residence,www.zillow.com/homedetails/124-S-Indian-Cir-Cocoa-FL-32922/43408503_zpid/,118.30635118306351
151,55823717,SINGLE_FAMILY,RECENTLY_SOLD,2024-01-05,40,0,190000.0,1121 Gary Hunt Rd,32926,1984,1.0,1.0,800.0,Square Feet,44430.99999999999,Square Feet,190800.0,28.375587,-80.77702,0.0,7.0,False,0.0,False,False,nan,www.zillow.com/homedetails/1121-Gary-Hunt-Rd-Cocoa-FL-32926/55823717_zpid/,237.5
515,43380411,SINGLE_FAMILY,RECENTLY_SOLD,2023-10-16,121,0,190000.0,219 Avilez Blvd,32780,1959,2.0,4.0,1308.0,Square Feet,9583.0,Square Feet,262900.0,28.573484,-80.80067,0.0,4.0,False,0.0,False,False,nan,www.zillow.com/homedetails/219-Avilez-Blvd-Titusville-FL-32780/43380411_zpid/,145.2599388379205
397,43514613,SINGLE_FAMILY,RECENTLY_SOLD,2023-11-07,99,0,190000.0,1524 Waco Blvd SE,32909,1984,1.0,2.0,900.0,Square Feet,10018.0,Square Feet,191400.0,27.965918,-80.628044,0.0,8.0,False,0.0,False,False,nan,www.zillow.com/homedetails/1524-Waco-Blvd-SE-Palm-Bay-FL-32909/43514613_zpid/,211.11111111111111
282,54602040,SINGLE_FAMILY,RECENTLY_SOLD,2023-12-05,71,1,190500.0,19 N De Leon Ave,32796,1954,1.0,2.0,950.0,Square Feet,9147.6,Square Feet,192000.0,28.616192,-80.81442,0.0,27.0,False,0.0,False,False,Single Family Residence,www.zillow.com/homedetails/19-N-De-Leon-Ave-Titusville-FL-32796/54602040_zpid/,200.52631578947367
53,43388772,SINGLE_FAMILY,RECENTLY_SOLD,2024-01-29,16,0,190800.0,935 Elkcam Blvd,32927,1965,2.0,3.0,1092.0,Square Feet,7405.0,Square Feet,190800.0,28.483292,-80.7791,1.0,40.0,False,0.0,False,False,Single Family Residence,www.zillow.com/homedetails/935-Elkcam-Blvd-Cocoa-FL-32927/43388772_zpid/,174.72527472527472
132,43479411,SINGLE_FAMILY,RECENTLY_SOLD,2024-01-10,35,1,191000.0,43 Emerson Dr NW,32907,1992,2.0,3.0,1615.0,Square Feet,10018.0,Square Feet,276900.0,28.032486,-80.725525,0.0,34.0,False,0.0,False,False,nan,www.zillow.com/homedetails/43-Emerson-Dr-NW-Palm-Bay-FL-32907/43479411_zpid/,118.26625386996903
538,43408233,SINGLE_FAMILY,RECENTLY_SOLD,2023-10-11,126,0,191500.0,1415 Highland Ct,32922,1962,2.0,4.0,1152.0,Square Feet,39204.0,Square Feet,193800.0,28.3769,-80.75151,0.0,13.0,False,0.0,False,False,nan,www.zillow.com/homedetails/1415-Highland-Ct-Cocoa-FL-32922/43408233_zpid/,166.23263888888889
121,43469486,SINGLE_FAMILY,RECENTLY_SOLD,2024-01-12,33,0,194000.0,2514 Pepper Ave,32935,1962,2.0,3.0,816.0,Square Feet,6534.0,Square Feet,194800.0,28.123339,-80.6633,3.0,91.0,False,0.0,False,False,Single Family Residence,www.zillow.com/homedetails/2514-Pepper-Ave-Melbourne-FL-32935/43469486_zpid/,237.7450980392157
373,251162387,SINGLE_FAMILY,RECENTLY_SOLD,2023-11-14,92,0,195000.0,1933 Westwood Blvd,32901,1946,1.0,2.0,625.0,Square Feet,6534.0,Square Feet,196400.0,28.079258,-80.636,0.0,17.0,False,0.0,False,False,Single Family Residence,www.zillow.com/homedetails/1933-Westwood-Blvd-Melbourne-FL-32901/251162387_zpid/,312.0
541,43488248,SINGLE_FAMILY,RECENTLY_SOLD,2023-10-11,126,0,195000.0,265 Lee Rd,32904,1959,2.0,3.0,1120.0,Square Feet,7405.2,Square Feet,196800.0,28.073244,-80.65228,0.0,3.0,False,0.0,False,False,Single Family Residence,www.zillow.com/homedetails/265-Lee-Rd-West-Melbourne-FL-32904/43488248_zpid/,174.10714285714286
464,43378767,SINGLE_FAMILY,RECENTLY_SOLD,2023-10-25,56,0,195000.0,1423 Bell Ter,32780,1957,2.0,3.0,1215.0,Square Feet,9147.6,Square Feet,264100.0,28.598963,-80.828766,32.0,419.0,False,0.0,False,False,Single Family Residence,www.zillow.com/homedetails/1423-Bell-Ter-Titusville-FL-32780/43378767_zpid/,160.49382716049382
308,54611778,SINGLE_FAMILY,RECENTLY_SOLD,2023-11-30,76,1,195000.0,1781 Freedom Dr,32940,1989,2.0,3.0,1157.0,Square Feet,7405.2,Square Feet,196200.0,28.253607,-80.716385,0.0,25.0,False,0.0,False,True,Single Family Residence,www.zillow.com/homedetails/1781-Freedom-Dr-Melbourne-FL-32940/54611778_zpid/,168.53932584269663
422,43496742,SINGLE_FAMILY,RECENTLY_SOLD,2023-11-01,14,0,195000.0,3259 Fairfax Ave NE,32905,1973,2.0,4.0,1380.0,Square Feet,7405.2,Square Feet,301900.0,28.014633,-80.57502,43.0,600.0,False,0.0,False,False,Single Family Residence,www.zillow.com/homedetails/3259-Fairfax-Ave-NE-Palm-Bay-FL-32905/43496742_zpid/,141.30434782608697
117,43392958,SINGLE_FAMILY,RECENTLY_SOLD,2024-01-12,33,0,195000.0,5589 Jamaica Rd,32927,1981,2.0,3.0,1176.0,Square Feet,10018.8,Square Feet,195800.0,28.463623,-80.81536,1.0,25.0,False,0.0,False,False,Single Family Residence,www.zillow.com/homedetails/5589-Jamaica-Rd-Cocoa-FL-32927/43392958_zpid/,165.81632653061226
276,43511741,SINGLE_FAMILY,RECENTLY_SOLD,2023-12-06,70,0,195000.0,3681 Jupiter Blvd SE,32909,1980,2.0,3.0,1272.0,Square Feet,11325.999999999998,Square Feet,203100.0,27.98759,-80.6441,0.0,40.0,False,0.0,False,False,Single Family Residence,www.zillow.com/homedetails/3681-Jupiter-Blvd-SE-Palm-Bay-FL-32909/43511741_zpid/,153.30188679245282
176,43493179,SINGLE_FAMILY,RECENTLY_SOLD,2023-12-29,47,0,195000.0,305 Crown Blvd,32901,1960,1.0,3.0,956.0,Square Feet,6098.4,Square Feet,195700.0,28.04578,-80.61648,0.0,14.0,False,0.0,False,False,Single Family Residence,www.zillow.com/homedetails/305-Crown-Blvd-Melbourne-FL-32901/43493179_zpid/,203.97489539748955
522,54617279,SINGLE_FAMILY,RECENTLY_SOLD,2023-10-16,99,0,196100.0,231 W Laila Dr,32904,1959,3.0,4.0,1664.0,Square Feet,12196.799999999996,Square Feet,280300.0,28.08183,-80.659874,41.0,1244.0,False,0.0,False,False,Single Family Residence,www.zillow.com/homedetails/231-W-Laila-Dr-West-Melbourne-FL-32904/54617279_zpid/,117.8485576923077
28,43403175,SINGLE_FAMILY,RECENTLY_SOLD,2024-02-02,12,0,197000.0,410 Lincoln Rd,32926,1960,1.0,3.0,825.0,Square Feet,6098.4,Square Feet,197200.0,28.35562,-80.7891,1.0,80.0,False,0.0,False,False,Single Family Residence,www.zillow.com/homedetails/410-Lincoln-Rd-Cocoa-FL-32926/43403175_zpid/,238.78787878787878
42,43412505,SINGLE_FAMILY,RECENTLY_SOLD,2024-01-31,14,0,198000.0,1017 Montclair Rd,32922,1961,1.0,3.0,872.0,Square Feet,9148.0,Square Feet,198100.0,28.371056,-80.75069,2.0,65.0,False,0.0,False,False,Single Family Residence,www.zillow.com/homedetails/1017-Montclair-Rd-Cocoa-FL-32922/43412505_zpid/,227.06422018348624
171,43408087,SINGLE_FAMILY,RECENTLY_SOLD,2023-12-29,47,0,198000.0,1205 Princeton Rd,32922,1959,2.0,3.0,1477.0,Square Feet,7840.8,Square Feet,200300.0,28.380568,-80.74862,0.0,13.0,False,0.0,False,False,Single Family Residence,www.zillow.com/homedetails/1205-Princeton-Rd-Cocoa-FL-32922/43408087_zpid/,134.05551794177387
109,43403557,SINGLE_FAMILY,RECENTLY_SOLD,2024-01-16,29,0,199900.0,3773 Brockington Cir,32926,1964,1.0,4.0,1216.0,Square Feet,8712.0,Square Feet,200000.0,28.349895,-80.78256,2.0,54.0,False,0.0,False,False,Single Family Residence,www.zillow.com/homedetails/3773-Brockington-Cir-Cocoa-FL-32926/43403557_zpid/,164.39144736842104
369,43388347,SINGLE_FAMILY,RECENTLY_SOLD,2023-11-14,19,0,199900.0,266 Fecco St,32927,1980,2.0,3.0,1176.0,Square Feet,7405.2,Square Feet,305400.0,28.486101,-80.778915,51.0,807.0,False,38.0,False,False,Single Family Residence,www.zillow.com/homedetails/266-Fecco-St-Cocoa-FL-32927/43388347_zpid/,169.98299319727892
630,43379766,SINGLE_FAMILY,RECENTLY_SOLD,2023-09-22,145,0,199999.0,219 Beverly St,32780,1956,2.0,2.0,846.0,Square Feet,7405.0,Square Feet,202200.0,28.583456,-80.804474,0.0,5.0,False,0.0,False,False,Single Family Residence,www.zillow.com/homedetails/219-Beverly-St-Titusville-FL-32780/43379766_zpid/,236.40543735224585
451,43393113,SINGLE_FAMILY,RECENTLY_SOLD,2023-10-27,54,0,200000.0,6375 Hudson Rd,32927,1990,2.0,3.0,1235.0,Square Feet,11761.2,Square Feet,339500.0,28.467396,-80.816666,36.0,480.0,False,0.0,False,False,Single Family Residence,www.zillow.com/homedetails/6375-Hudson-Rd-Cocoa-FL-32927/43393113_zpid/,161.94331983805668
429,43440456,SINGLE_FAMILY,RECENTLY_SOLD,2023-10-31,106,0,200000.0,1096 Ironsides Ave,32940,1989,3.0,4.0,1849.0,Square Feet,9147.6,Square Feet,201600.0,28.250174,-80.70902,0.0,0.0,False,0.0,False,True,Single Family Residence,www.zillow.com/homedetails/1096-Ironsides-Ave-Melbourne-FL-32940/43440456_zpid/,108.1665765278529
499,43415619,SINGLE_FAMILY,RECENTLY_SOLD,2023-10-19,118,0,200000.0,20 Mark Ave,32952,1964,2.0,3.0,1573.0,Square Feet,9583.0,Square Feet,361000.0,28.350649,-80.70072,0.0,39.0,False,0.0,False,False,nan,www.zillow.com/homedetails/20-Mark-Ave-Merritt-Island-FL-32952/43415619_zpid/,127.14558169103624
621,43495283,SINGLE_FAMILY,RECENTLY_SOLD,2023-09-26,47,0,200000.0,349 Port Malabar Blvd NE,32905,1976,2.0,2.0,1156.0,Square Feet,16988.4,Square Feet,264300.0,28.029154,-80.63265,22.0,370.0,False,0.0,False,False,Single Family Residence,www.zillow.com/homedetails/349-Port-Malabar-Blvd-NE-Palm-Bay-FL-32905/43495283_zpid/,173.01038062283737
612,43476455,SINGLE_FAMILY,RECENTLY_SOLD,2023-09-27,140,1,200000.0,417 Michigan Ave,32903,1951,2.0,3.0,1260.0,Square Feet,13068.0,Square Feet,502300.0,28.092854,-80.57493,0.0,14.0,False,0.0,False,False,nan,www.zillow.com/homedetails/417-Michigan-Ave-Indialantic-FL-32903/43476455_zpid/,158.73015873015873
409,43497898,SINGLE_FAMILY,RECENTLY_SOLD,2023-11-03,103,0,200000.0,1137 Delmar Ter NE,32905,1958,1.0,3.0,1156.0,Square Feet,11325.6,Square Feet,201500.0,28.02674,-80.592026,0.0,8.0,False,0.0,False,False,Single Family Residence,www.zillow.com/homedetails/1137-Delmar-Ter-NE-Palm-Bay-FL-32905/43497898_zpid/,173.01038062283737
534,43456503,SINGLE_FAMILY,RECENTLY_SOLD,2023-10-12,125,0,200000.0,5460 Pina Vista Dr,32934,1985,2.0,3.0,2124.0,Square Feet,53143.00000000001,Square Feet,201800.0,28.142223,-80.71948,0.0,22.0,False,0.0,False,False,nan,www.zillow.com/homedetails/5460-Pina-Vista-Dr-Melbourne-FL-32934/43456503_zpid/,94.16195856873823
31,43470272,SINGLE_FAMILY,RECENTLY_SOLD,2024-02-02,12,0,200000.0,500 Sacre Coeur Dr,32935,1973,2.0,4.0,1812.0,Square Feet,9583.0,Square Feet,369900.0,28.11493,-80.66773,0.0,6.0,False,0.0,False,False,nan,www.zillow.com/homedetails/500-Sacre-Coeur-Dr-Melbourne-FL-32935/43470272_zpid/,110.37527593818984
390,54617303,SINGLE_FAMILY,RECENTLY_SOLD,2023-11-08,98,0,200000.0,5041 Martin Ln,32904,1959,2.0,3.0,912.0,Square Feet,9147.0,Square Feet,257800.0,28.073296,-80.65396,0.0,5.0,False,0.0,False,False,nan,www.zillow.com/homedetails/5041-Martin-Ln-West-Melbourne-FL-32904/54617303_zpid/,219.2982456140351
420,43371114,SINGLE_FAMILY,RECENTLY_SOLD,2023-11-01,105,1,200000.0,2803 W Hickory Cir,32754,1959,1.0,3.0,756.0,Square Feet,7405.0,Square Feet,201600.0,28.67521,-80.84481,0.0,5.0,False,0.0,False,False,nan,www.zillow.com/homedetails/2803-W-Hickory-Cir-Mims-FL-32754/43371114_zpid/,264.55026455026456
72,43494202,SINGLE_FAMILY,RECENTLY_SOLD,2024-01-24,21,0,200000.0,1233 York Cir,32904,1984,2.0,3.0,1524.0,Square Feet,14810.399999999996,Square Feet,200000.0,28.052238,-80.64297,9.0,189.0,False,23.0,False,False,Single Family Residence,www.zillow.com/homedetails/1233-York-Cir-Melbourne-FL-32904/43494202_zpid/,131.23359580052494
224,43497077,SINGLE_FAMILY,RECENTLY_SOLD,2023-12-19,57,0,200000.0,1173 Cabot Dr NE,32905,1961,1.0,2.0,949.0,Square Feet,9583.2,Square Feet,200700.0,28.026237,-80.5799,0.0,28.0,False,0.0,False,False,Single Family Residence,www.zillow.com/homedetails/1173-Cabot-Dr-NE-Palm-Bay-FL-32905/43497077_zpid/,210.7481559536354
487,43516901,SINGLE_FAMILY,RECENTLY_SOLD,2023-10-23,114,0,200000.0,1982 Pirate Ave SE,32909,1996,2.0,3.0,1352.0,Square Feet,10454.0,Square Feet,321400.0,27.948523,-80.64178,0.0,30.0,False,0.0,False,False,nan,www.zillow.com/homedetails/1982-Pirate-Ave-SE-Palm-Bay-FL-32909/43516901_zpid/,147.92899408284023
416,43493169,SINGLE_FAMILY,RECENTLY_SOLD,2023-11-02,104,0,200000.0,115 Crown Blvd,32901,1960,2.0,3.0,1200.0,Square Feet,6969.6,Square Feet,192200.0,28.045794,-80.618614,0.0,11.0,False,0.0,False,False,Single Family Residence,www.zillow.com/homedetails/115-Crown-Blvd-Melbourne-FL-32901/43493169_zpid/,166.66666666666666
54,43410912,SINGLE_FAMILY,RECENTLY_SOLD,2024-01-29,16,0,200000.0,870 Sandgate St,32953,1965,2.0,4.0,1396.0,Square Feet,9583.0,Square Feet,277200.0,28.37171,-80.70795,0.0,33.0,False,0.0,False,False,nan,www.zillow.com/homedetails/870-Sandgate-St-Merritt-Island-FL-32953/43410912_zpid/,143.26647564469914
166,43379762,SINGLE_FAMILY,RECENTLY_SOLD,2023-12-29,47,0,200000.0,159 Beverly St,32780,1956,2.0,3.0,1363.0,Square Feet,7405.0,Square Feet,201000.0,28.583448,-80.80337,0.0,8.0,False,0.0,False,False,nan,www.zillow.com/homedetails/159-Beverly-St-Titusville-FL-32780/43379762_zpid/,146.7351430667645
