,zpid,homeType,homeStatus,dateSoldString,timeOnZillow.1,price,streetAddress,zipcode,yearBuilt,bathrooms,bedrooms,livingAreaValue,livingAreaUnits,lotAreaValue,lotAreaUnits,zestimate,latitude,longitude,favoriteCount,pageViewCount,newConstructionType,resoFacts.associationFee,listingSubType.isForeclosure,resoFacts.isSeniorCommunity,resoFacts.propertySubType,hdpUrl
0,52422891,SINGLE_FAMILY,RECENTLY_SOLD,2024-02-15,1 day,235000.0,1475 Leeward Ave SE,32909,1983,1.0,2.0,832.0,Square Feet,10018.8,Square Feet,232000.0,27.960289,-80.631096,1.0,92.0,False,0.0,False,False,Single Family Residence,www.zillow.com/homedetails/1475-Leeward-Ave-SE-Palm-Bay-FL-32909/52422891_zpid/
1,2070477473,SINGLE_FAMILY,RECENTLY_SOLD,2024-02-15,1 day,85000.0,145 Ruth Ave,32922,1964,1.0,2.0,1140.0,Square Feet,10454.4,Square Feet,117400.0,28.353632,-80.750404,41.0,749.0,False,0.0,False,False,Single Family Residence,www.zillow.com/homedetails/145-Ruth-Ave-Cocoa-FL-32922/2070477473_zpid/
2,43513667,SINGLE_FAMILY,RECENTLY_SOLD,2024-02-14,20 hours,245000.0,1299 Tacoma St SE,32909,1984,2.0,3.0,1094.0,Square Feet,11761.2,Square Feet,238700.0,27.976576,-80.6349,84.0,1308.0,False,0.0,False,False,Single Family Residence,www.zillow.com/homedetails/1299-Tacoma-St-SE-Palm-Bay-FL-32909/43513667_zpid/
3,43408312,SINGLE_FAMILY,RECENTLY_SOLD,2024-02-13,1 day,126000.0,1432 Mac Arthur Ln,32922,1957,1.0,3.0,768.0,Square Feet,13503.6,Square Feet,0.0,28.381496,-80.75252,3.0,183.0,False,0.0,False,False,Single Family Residence,www.zillow.com/homedetails/1432-Mac-Arthur-Ln-Cocoa-FL-32922/43408312_zpid/
4,2068968809,SINGLE_FAMILY,RECENTLY_SOLD,2024-02-13,1 day,165000.0,882 Carnival Rd SE #12,32909,1985,2.0,3.0,966.0,Square Feet,10018.8,Square Feet,216600.0,27.978214,-80.65889,19.0,363.0,False,0.0,False,False,Single Family Residence,www.zillow.com/homedetails/882-Carnival-Rd-SE-12-Palm-Bay-FL-32909/2068968809_zpid/
5,43412045,SINGLE_FAMILY,RECENTLY_SOLD,2024-02-12,296 days,236925.0,118 Cocoa Pl,32922,1952,1.0,3.0,1235.0,Square Feet,7405.2,Square Feet,240600.0,28.369532,-80.736176,0.0,50.0,False,0.0,False,False,Single Family Residence,www.zillow.com/homedetails/118-Cocoa-Pl-Cocoa-FL-32922/43412045_zpid/
6,43482665,SINGLE_FAMILY,RECENTLY_SOLD,2024-02-12,2 days,245000.0,909 Essen Ave NW,32907,1985,2.0,3.0,1627.0,Square Feet,12632.4,Square Feet,267400.0,28.021555,-80.69194,2.0,76.0,False,0.0,False,False,Single Family Residence,www.zillow.com/homedetails/909-Essen-Ave-NW-Palm-Bay-FL-32907/43482665_zpid/
7,43515871,SINGLE_FAMILY,RECENTLY_SOLD,2024-02-12,2 days,230000.0,321 Albright St SE,32909,1988,2.0,3.0,1526.0,Square Feet,10454.4,Square Feet,0.0,27.96949,-80.66416,45.0,833.0,False,0.0,False,False,Single Family Residence,www.zillow.com/homedetails/321-Albright-St-SE-Palm-Bay-FL-32909/43515871_zpid/
8,43400335,SINGLE_FAMILY,RECENTLY_SOLD,2024-02-09,5 days,250000.0,3023 Sandgate Ct,32926,1968,1.0,3.0,988.0,Square Feet,9147.6,Square Feet,250000.0,28.397217,-80.77416,0.0,39.0,False,0.0,False,False,Single Family Residence,www.zillow.com/homedetails/3023-Sandgate-Ct-Cocoa-FL-32926/43400335_zpid/
9,43467371,SINGLE_FAMILY,RECENTLY_SOLD,2024-02-09,5 days,147000.0,1315 Pinewood Dr,32935,1958,1.0,3.0,888.0,Square Feet,7405.2,Square Feet,147000.0,28.13536,-80.64135,0.0,76.0,False,0.0,False,False,Single Family Residence,www.zillow.com/homedetails/1315-Pinewood-Dr-Melbourne-FL-32935/43467371_zpid/
10,43497564,SINGLE_FAMILY,RECENTLY_SOLD,2024-02-09,5 days,210000.0,741 Atlanta Ave NE,32905,1968,2.0,3.0,1439.0,Square Feet,8712.0,Square Feet,210000.0,28.01491,-80.5859,50.0,654.0,False,0.0,False,False,Single Family Residence,www.zillow.com/homedetails/741-Atlanta-Ave-NE-Palm-Bay-FL-32905/43497564_zpid/
11,43510026,SINGLE_FAMILY,RECENTLY_SOLD,2024-02-09,5 days,250000.0,795 Harper Blvd SW,32908,1988,2.0,3.0,1344.0,Square Feet,11761.2,Square Feet,250000.0,27.98087,-80.692726,1.0,70.0,False,0.0,False,False,Single Family Residence,www.zillow.com/homedetails/795-Harper-Blvd-SW-Palm-Bay-FL-32908/43510026_zpid/
12,52273974,SINGLE_FAMILY,RECENTLY_SOLD,2024-02-09,5 days,225000.0,1015 Montclair Rd,32922,1961,1.0,3.0,1084.0,Square Feet,8712.0,Square Feet,217600.0,28.370848,-80.75069,10.0,215.0,False,0.0,False,False,Single Family Residence,www.zillow.com/homedetails/1015-Montclair-Rd-Cocoa-FL-32922/52273974_zpid/
13,43407117,SINGLE_FAMILY,RECENTLY_SOLD,2024-02-08,6 days,210000.0,2443 Clearlake Rd,32922,1957,1.0,3.0,1124.0,Square Feet,12196.799999999996,Square Feet,210100.0,28.39143,-80.75539,17.0,366.0,False,0.0,False,False,Single Family Residence,www.zillow.com/homedetails/2443-Clearlake-Rd-Cocoa-FL-32922/43407117_zpid/
14,43514322,SINGLE_FAMILY,RECENTLY_SOLD,2024-02-08,6 days,245000.0,1463 Leeward Ave SE,32909,1983,1.0,2.0,1098.0,Square Feet,10018.8,Square Feet,250600.0,27.960478,-80.63123,0.0,76.0,False,0.0,False,False,Single Family Residence,www.zillow.com/homedetails/1463-Leeward-Ave-SE-Palm-Bay-FL-32909/43514322_zpid/
15,52397458,SINGLE_FAMILY,RECENTLY_SOLD,2024-02-08,6 days,250000.0,2089 Redwood Cir NE,32905,2001,2.0,3.0,1292.0,Square Feet,0.0,Square Feet,250100.0,28.021122,-80.60832,5.0,292.0,False,150.0,False,False,Single Family Residence,www.zillow.com/homedetails/2089-Redwood-Cir-NE-Palm-Bay-FL-32905/52397458_zpid/
16,43378964,SINGLE_FAMILY,RECENTLY_SOLD,2024-02-07,7 days,220000.0,2000 White Sands Dr,32780,1965,2.0,4.0,1635.0,Square Feet,9147.6,Square Feet,220000.0,28.591688,-80.818275,27.0,750.0,False,0.0,False,False,Single Family Residence,www.zillow.com/homedetails/2000-White-Sands-Dr-Titusville-FL-32780/43378964_zpid/
17,43491371,SINGLE_FAMILY,RECENTLY_SOLD,2024-02-07,358 days,181000.0,506 Walker St,32901,1964,2.0,3.0,1789.0,Square Feet,16116.999999999998,Square Feet,181000.0,28.065094,-80.6124,2.0,202.0,False,0.0,True,False,Single Family Residence,www.zillow.com/homedetails/506-Walker-St-Melbourne-FL-32901/43491371_zpid/
18,43483197,SINGLE_FAMILY,RECENTLY_SOLD,2024-02-06,8 days,249000.0,1066 Heath Ave NW,32907,1984,2.0,3.0,1324.0,Square Feet,10454.4,Square Feet,249100.0,28.025282,-80.70967,6.0,130.0,False,0.0,False,False,Single Family Residence,www.zillow.com/homedetails/1066-Heath-Ave-NW-Palm-Bay-FL-32907/43483197_zpid/
19,52640731,SINGLE_FAMILY,RECENTLY_SOLD,2024-02-06,8 days,184000.0,2809 Hessey Ave NE,32905,1956,3.0,3.0,1715.0,Square Feet,36154.8,Square Feet,184000.0,28.036295,-80.588135,6.0,277.0,False,0.0,False,False,Single Family Residence,www.zillow.com/homedetails/2809-Hessey-Ave-NE-Palm-Bay-FL-32905/52640731_zpid/
20,43390880,SINGLE_FAMILY,RECENTLY_SOLD,2024-02-05,9 days,225000.0,7175 Kaylor Ave,32927,1988,2.0,3.0,1210.0,Square Feet,10454.4,Square Feet,225000.0,28.484196,-80.811966,5.0,218.0,False,0.0,False,False,Single Family Residence,www.zillow.com/homedetails/7175-Kaylor-Ave-Cocoa-FL-32927/43390880_zpid/
21,43430872,SINGLE_FAMILY,RECENTLY_SOLD,2024-02-05,9 days,250000.0,961 Bartlett Ln,32955,1966,2.0,3.0,1295.0,Square Feet,8712.0,Square Feet,250200.0,28.313778,-80.73519,0.0,85.0,False,0.0,False,False,Single Family Residence,www.zillow.com/homedetails/961-Bartlett-Ln-Rockledge-FL-32955/43430872_zpid/
22,43467534,SINGLE_FAMILY,RECENTLY_SOLD,2024-02-05,9 days,132400.0,2138 Cherrywood Dr,32935,1980,2.0,3.0,1347.0,Square Feet,7840.0,Square Feet,287300.0,28.141949,-80.642586,0.0,7.0,False,0.0,False,False,nan,www.zillow.com/homedetails/2138-Cherrywood-Dr-Melbourne-FL-32935/43467534_zpid/
23,43476062,SINGLE_FAMILY,RECENTLY_SOLD,2024-02-05,9 days,120000.0,904 Wisteria Dr,32901,1956,1.5,3.0,1100.0,Square Feet,8276.0,Square Feet,203800.0,28.09406,-80.61498,0.0,0.0,False,0.0,False,False,nan,www.zillow.com/homedetails/904-Wisteria-Dr-Melbourne-FL-32901/43476062_zpid/
24,54620408,SINGLE_FAMILY,RECENTLY_SOLD,2024-02-05,9 days,248000.0,3112 Troon Ave SE,32909,1987,2.0,3.0,1432.0,Square Feet,12632.4,Square Feet,248000.0,27.916533,-80.64792,1.0,98.0,False,0.0,False,False,Single Family Residence,www.zillow.com/homedetails/3112-Troon-Ave-SE-Palm-Bay-FL-32909/54620408_zpid/
25,43375447,SINGLE_FAMILY,RECENTLY_SOLD,2024-02-02,12 days,183500.0,2937 Cooper Dr,32796,1965,2.0,3.0,1266.0,Square Feet,7405.2,Square Feet,183600.0,28.62809,-80.8416,19.0,380.0,False,0.0,True,False,Single Family Residence,www.zillow.com/homedetails/2937-Cooper-Dr-Titusville-FL-32796/43375447_zpid/
26,43402394,SINGLE_FAMILY,RECENTLY_SOLD,2024-02-02,12 days,223000.0,2571 Stratford Dr,32926,1964,2.0,3.0,962.0,Square Feet,7405.2,Square Feet,223100.0,28.366735,-80.77382,1.0,73.0,False,0.0,False,False,Single Family Residence,www.zillow.com/homedetails/2571-Stratford-Dr-Cocoa-FL-32926/43402394_zpid/
27,43402661,SINGLE_FAMILY,RECENTLY_SOLD,2024-02-02,12 days,89500.0,5300 Lake Poinsett Rd,32926,1959,1.0,1.0,688.0,Square Feet,137649.0,Square Feet,213000.0,28.35527,-80.80801,0.0,1.0,False,0.0,False,False,nan,www.zillow.com/homedetails/5300-Lake-Poinsett-Rd-Cocoa-FL-32926/43402661_zpid/
28,43403175,SINGLE_FAMILY,RECENTLY_SOLD,2024-02-02,12 days,197000.0,410 Lincoln Rd,32926,1960,1.0,3.0,825.0,Square Feet,6098.4,Square Feet,197200.0,28.35562,-80.7891,1.0,80.0,False,0.0,False,False,Single Family Residence,www.zillow.com/homedetails/410-Lincoln-Rd-Cocoa-FL-32926/43403175_zpid/
29,43417726,SINGLE_FAMILY,RECENTLY_SOLD,2024-02-02,12 days,250000.0,1245 Arlington Cir,32952,1977,2.0,3.0,1273.0,Square Feet,11324.999999999998,Square Feet,289400.0,28.400156,-80.674,0.0,37.0,False,0.0,False,False,nan,www.zillow.com/homedetails/1245-Arlington-Cir-Merritt-Island-FL-32952/43417726_zpid/
30,43443807,SINGLE_FAMILY,RECENTLY_SOLD,2024-02-02,12 days,215000.0,7989 Bradwick Way,32940,1996,2.0,4.0,2804.0,Square Feet,13068.0,Square Feet,743000.0,28.222166,-80.704,0.0,5.0,False,0.0,False,False,nan,www.zillow.com/homedetails/7989-Bradwick-Way-Melbourne-FL-32940/43443807_zpid/
31,43470272,SINGLE_FAMILY,RECENTLY_SOLD,2024-02-02,12 days,200000.0,500 Sacre Coeur Dr,32935,1973,2.0,4.0,1812.0,Square Feet,9583.0,Square Feet,369900.0,28.11493,-80.66773,0.0,6.0,False,0.0,False,False,nan,www.zillow.com/homedetails/500-Sacre-Coeur-Dr-Melbourne-FL-32935/43470272_zpid/
32,54615666,SINGLE_FAMILY,RECENTLY_SOLD,2024-02-02,12 days,249000.0,1935 Fillmore Ave,32935,1958,1.0,3.0,1032.0,Square Feet,7840.8,Square Feet,249100.0,28.127338,-80.652565,2.0,70.0,False,0.0,False,False,Single Family Residence,www.zillow.com/homedetails/1935-Fillmore-Ave-Melbourne-FL-32935/54615666_zpid/
33,43370911,SINGLE_FAMILY,RECENTLY_SOLD,2024-02-01,13 days,80000.0,3530 Kelly Rd,32754,1957,2.0,3.0,1191.0,Square Feet,6969.0,Square Feet,167400.0,28.67457,-80.85319,0.0,16.0,False,0.0,False,False,nan,www.zillow.com/homedetails/3530-Kelly-Rd-Mims-FL-32754/43370911_zpid/
34,43376284,SINGLE_FAMILY,RECENTLY_SOLD,2024-02-01,13 days,85000.0,1011 English St,32796,1958,1.0,2.0,1072.0,Square Feet,7840.0,Square Feet,183600.0,28.617062,-80.815346,0.0,30.0,False,0.0,False,False,nan,www.zillow.com/homedetails/1011-English-St-Titusville-FL-32796/43376284_zpid/
35,43402233,SINGLE_FAMILY,RECENTLY_SOLD,2024-02-01,13 days,215000.0,651 N Range Rd,32926,1947,2.0,2.0,1333.0,Square Feet,14374.799999999996,Square Feet,215100.0,28.365774,-80.77177,4.0,129.0,False,0.0,False,False,Single Family Residence,www.zillow.com/homedetails/651-N-Range-Rd-Cocoa-FL-32926/43402233_zpid/
36,43496663,SINGLE_FAMILY,RECENTLY_SOLD,2024-02-01,4 days,220000.0,3266 Edgewood Dr NE,32905,1973,2.0,3.0,1313.0,Square Feet,9583.2,Square Feet,282100.0,28.01281,-80.574585,16.0,444.0,False,0.0,False,False,Single Family Residence,www.zillow.com/homedetails/3266-Edgewood-Dr-NE-Palm-Bay-FL-32905/43496663_zpid/
37,54620184,SINGLE_FAMILY,RECENTLY_SOLD,2024-02-01,13 days,150000.0,609 Seven Gables Cir SE,32909,1986,2.0,3.0,1500.0,Square Feet,14373.999999999996,Square Feet,285700.0,27.967577,-80.65485,0.0,3.0,False,0.0,False,False,nan,www.zillow.com/homedetails/609-Seven-Gables-Cir-SE-Palm-Bay-FL-32909/54620184_zpid/
38,80766748,SINGLE_FAMILY,RECENTLY_SOLD,2024-02-01,13 days,165000.0,1504 Belleview Rd,32922,2006,2.0,3.0,1178.0,Square Feet,5662.8,Square Feet,165100.0,28.364555,-80.75329,2.0,113.0,False,0.0,False,False,Single Family Residence,www.zillow.com/homedetails/1504-Belleview-Rd-Cocoa-FL-32922/80766748_zpid/
39,43385594,SINGLE_FAMILY,RECENTLY_SOLD,2024-01-31,14 days,250000.0,2185 Kansas St,32780,1979,2.0,3.0,1560.0,Square Feet,8712.0,Square Feet,250100.0,28.552906,-80.82657,1.0,126.0,False,0.0,False,False,Single Family Residence,www.zillow.com/homedetails/2185-Kansas-St-Titusville-FL-32780/43385594_zpid/
40,43394052,SINGLE_FAMILY,RECENTLY_SOLD,2024-01-31,14 days,240000.0,4291 Ponds Dr,32927,1982,2.0,3.0,1248.0,Square Feet,10018.8,Square Feet,240100.0,28.47163,-80.7913,2.0,66.0,False,0.0,False,False,Single Family Residence,www.zillow.com/homedetails/4291-Ponds-Dr-Cocoa-FL-32927/43394052_zpid/
41,43402419,SINGLE_FAMILY,RECENTLY_SOLD,2024-01-31,14 days,237500.0,2511 Stratford Dr,32926,1961,2.0,4.0,1576.0,Square Feet,7840.8,Square Feet,0.0,28.36387,-80.77295,0.0,66.0,False,0.0,False,False,Single Family Residence,www.zillow.com/homedetails/2511-Stratford-Dr-Cocoa-FL-32926/43402419_zpid/
42,43412505,SINGLE_FAMILY,RECENTLY_SOLD,2024-01-31,14 days,198000.0,1017 Montclair Rd,32922,1961,1.0,3.0,872.0,Square Feet,9148.0,Square Feet,198100.0,28.371056,-80.75069,2.0,65.0,False,0.0,False,False,Single Family Residence,www.zillow.com/homedetails/1017-Montclair-Rd-Cocoa-FL-32922/43412505_zpid/
43,43486845,SINGLE_FAMILY,RECENTLY_SOLD,2024-01-31,14 days,205000.0,1621 S Apollo Blvd,32901,1957,2.0,2.0,1441.0,Square Feet,5662.8,Square Feet,205100.0,28.08274,-80.61727,4.0,136.0,False,0.0,False,False,Single Family Residence,www.zillow.com/homedetails/1621-S-Apollo-Blvd-Melbourne-FL-32901/43486845_zpid/
44,43488666,SINGLE_FAMILY,RECENTLY_SOLD,2024-01-31,78 days,161000.0,235 Bossieux Blvd,32904,1954,2.0,3.0,1424.0,Square Feet,10454.0,Square Feet,0.0,28.074842,-80.666275,3.0,76.0,False,0.0,False,False,nan,www.zillow.com/homedetails/235-Bossieux-Blvd-West-Melbourne-FL-32904/43488666_zpid/
45,43496622,SINGLE_FAMILY,RECENTLY_SOLD,2024-01-31,14 days,180000.0,921 Burn Dr NE,32905,1973,2.0,4.0,1316.0,Square Feet,9583.0,Square Feet,257400.0,28.019571,-80.5758,0.0,67.0,False,0.0,False,False,nan,www.zillow.com/homedetails/921-Burn-Dr-NE-Palm-Bay-FL-32905/43496622_zpid/
46,43502523,SINGLE_FAMILY,RECENTLY_SOLD,2024-01-31,14 days,247500.0,851 Forest St NE,32907,1980,2.0,3.0,1347.0,Square Feet,10018.8,Square Feet,247600.0,28.006842,-80.647095,30.0,458.0,False,0.0,False,False,Single Family Residence,www.zillow.com/homedetails/851-Forest-St-NE-Palm-Bay-FL-32907/43502523_zpid/
47,52525085,SINGLE_FAMILY,RECENTLY_SOLD,2024-01-31,14 days,180000.0,1014 Hooper Ave NE,32905,1980,2.0,3.0,1315.0,Square Feet,11999.999999999998,Square Feet,277900.0,28.0234,-80.62691,1.0,40.0,False,0.0,False,False,Detached Home,www.zillow.com/homedetails/1014-Hooper-Ave-NE-Palm-Bay-FL-32905/52525085_zpid/
48,43371508,SINGLE_FAMILY,RECENTLY_SOLD,2024-01-30,15 days,55000.0,2559 Harry T Moore Ave,32754,1957,1.0,2.0,748.0,Square Feet,4791.0,Square Feet,97300.0,28.668121,-80.84019,0.0,26.0,False,0.0,False,False,nan,www.zillow.com/homedetails/2559-Harry-T-Moore-Ave-Mims-FL-32754/43371508_zpid/
49,43410833,SINGLE_FAMILY,RECENTLY_SOLD,2024-01-30,15 days,235000.0,1040 Butia St,32953,1964,2.0,4.0,1675.0,Square Feet,7405.0,Square Feet,297500.0,28.374895,-80.70222,0.0,8.0,False,0.0,False,False,nan,www.zillow.com/homedetails/1040-Butia-St-Merritt-Island-FL-32953/43410833_zpid/
50,43469860,SINGLE_FAMILY,RECENTLY_SOLD,2024-01-30,15 days,172000.0,2695 Kefauver St,32935,1964,2.0,4.0,1320.0,Square Feet,8276.0,Square Feet,172200.0,28.125784,-80.66682,1.0,61.0,False,0.0,False,False,nan,www.zillow.com/homedetails/2695-Kefauver-St-Melbourne-FL-32935/43469860_zpid/
51,43511666,SINGLE_FAMILY,RECENTLY_SOLD,2024-01-30,15 days,136000.0,1141 Flagami Rd SE,32909,1999,2.0,3.0,1404.0,Square Feet,21343.999999999996,Square Feet,286300.0,27.989408,-80.639404,1.0,6.0,False,0.0,False,False,nan,www.zillow.com/homedetails/1141-Flagami-Rd-SE-Palm-Bay-FL-32909/43511666_zpid/
52,54604495,SINGLE_FAMILY,RECENTLY_SOLD,2024-01-30,15 days,220000.0,2165 Emerald Ct,32953,1968,2.0,3.0,1242.0,Square Feet,10018.0,Square Feet,220200.0,28.39584,-80.70338,0.0,18.0,False,0.0,False,False,nan,www.zillow.com/homedetails/2165-Emerald-Ct-Merritt-Island-FL-32953/54604495_zpid/
53,43388772,SINGLE_FAMILY,RECENTLY_SOLD,2024-01-29,16 days,190800.0,935 Elkcam Blvd,32927,1965,2.0,3.0,1092.0,Square Feet,7405.0,Square Feet,190800.0,28.483292,-80.7791,1.0,40.0,False,0.0,False,False,Single Family Residence,www.zillow.com/homedetails/935-Elkcam-Blvd-Cocoa-FL-32927/43388772_zpid/
54,43410912,SINGLE_FAMILY,RECENTLY_SOLD,2024-01-29,16 days,200000.0,870 Sandgate St,32953,1965,2.0,4.0,1396.0,Square Feet,9583.0,Square Feet,277200.0,28.37171,-80.70795,0.0,33.0,False,0.0,False,False,nan,www.zillow.com/homedetails/870-Sandgate-St-Merritt-Island-FL-32953/43410912_zpid/
55,54615931,SINGLE_FAMILY,RECENTLY_SOLD,2024-01-29,16 days,75000.0,1001 W Eau Gallie Blvd APT 203,32935,1980,1.5,1.0,828.0,Square Feet,2178.0,Square Feet,143200.0,28.127867,-80.634544,0.0,14.0,False,0.0,False,False,nan,www.zillow.com/homedetails/1001-W-Eau-Gallie-Blvd-APT-203-Melbourne-FL-32935/54615931_zpid/
56,84635341,SINGLE_FAMILY,RECENTLY_SOLD,2024-01-29,16 days,80000.0,2241 Angel Rd SE,32909,2007,3.0,3.0,2272.0,Square Feet,10018.0,Square Feet,336000.0,27.939253,-80.62813,0.0,14.0,False,0.0,False,False,nan,www.zillow.com/homedetails/2241-Angel-Rd-SE-Palm-Bay-FL-32909/84635341_zpid/
57,43370510,SINGLE_FAMILY,RECENTLY_SOLD,2024-01-26,19 days,220000.0,3530 Brevard Rd,32754,1984,2.0,3.0,1170.0,Square Feet,44866.8,Square Feet,234300.0,28.696934,-80.85552,3.0,159.0,False,0.0,False,False,Single Family Residence,www.zillow.com/homedetails/3530-Brevard-Rd-Mims-FL-32754/43370510_zpid/
58,43371525,SINGLE_FAMILY,RECENTLY_SOLD,2024-01-26,19 days,164900.0,2681 Orange Ave,32754,1959,1.0,2.0,592.0,Square Feet,7405.2,Square Feet,164900.0,28.671465,-80.84126,0.0,49.0,False,0.0,False,False,Single Family Residence,www.zillow.com/homedetails/2681-Orange-Ave-Mims-FL-32754/43371525_zpid/
59,43380779,SINGLE_FAMILY,RECENTLY_SOLD,2024-01-26,19 days,250000.0,1505 Littler Dr,32780,1966,2.0,3.0,1542.0,Square Feet,7840.8,Square Feet,250300.0,28.576912,-80.81972,1.0,144.0,False,0.0,False,False,Single Family Residence,www.zillow.com/homedetails/1505-Littler-Dr-Titusville-FL-32780/43380779_zpid/
60,43414464,SINGLE_FAMILY,RECENTLY_SOLD,2024-01-26,19 days,189900.0,118 Explorer St,32922,1959,1.0,3.0,864.0,Square Feet,7405.2,Square Feet,190000.0,28.353867,-80.747765,0.0,45.0,False,0.0,False,False,Single Family Residence,www.zillow.com/homedetails/118-Explorer-St-Cocoa-FL-32922/43414464_zpid/
61,43477589,SINGLE_FAMILY,RECENTLY_SOLD,2024-01-26,19 days,78000.0,2295 Wood St,32904,1959,1.0,1.0,520.0,Square Feet,6969.0,Square Feet,40700.0,28.07313,-80.68582,0.0,9.0,False,0.0,False,False,nan,www.zillow.com/homedetails/2295-Wood-St-Melbourne-FL-32904/43477589_zpid/
62,43512008,SINGLE_FAMILY,RECENTLY_SOLD,2024-01-26,19 days,226000.0,146 Decordre Rd SE,32909,1981,2.0,2.0,1065.0,Square Feet,10018.8,Square Feet,226100.0,27.996658,-80.66441,1.0,133.0,False,0.0,False,False,Single Family Residence,www.zillow.com/homedetails/146-Decordre-Rd-SE-Palm-Bay-FL-32909/43512008_zpid/
63,43372125,SINGLE_FAMILY,RECENTLY_SOLD,2024-01-25,20 days,240000.0,3741 Ranger St,32796,1985,2.0,3.0,1285.0,Square Feet,7840.8,Square Feet,240000.0,28.645208,-80.859344,0.0,121.0,False,0.0,False,False,Single Family Residence,www.zillow.com/homedetails/3741-Ranger-St-Titusville-FL-32796/43372125_zpid/
64,43380400,SINGLE_FAMILY,RECENTLY_SOLD,2024-01-25,20 days,249000.0,231 Narvaez Dr,32780,1964,2.0,4.0,1580.0,Square Feet,9147.6,Square Feet,249300.0,28.574312,-80.80113,1.0,89.0,False,0.0,False,False,Single Family Residence,www.zillow.com/homedetails/231-Narvaez-Dr-Titusville-FL-32780/43380400_zpid/
65,43394387,SINGLE_FAMILY,RECENTLY_SOLD,2024-01-25,20 days,156000.0,4230 Ponds Dr,32927,1981,2.0,3.0,1026.0,Square Feet,10454.0,Square Feet,234500.0,28.473097,-80.79183,0.0,29.0,False,0.0,False,False,nan,www.zillow.com/homedetails/4230-Ponds-Dr-Cocoa-FL-32927/43394387_zpid/
66,43402145,SINGLE_FAMILY,RECENTLY_SOLD,2024-01-25,20 days,146400.0,745 Cox Rd,32926,1974,2.0,3.0,2018.0,Square Feet,40075.00000000001,Square Feet,259200.0,28.368237,-80.7875,0.0,12.0,False,0.0,False,False,nan,www.zillow.com/homedetails/745-Cox-Rd-Cocoa-FL-32926/43402145_zpid/
67,43413838,SINGLE_FAMILY,RECENTLY_SOLD,2024-01-25,20 days,172000.0,2481 Victor Rd,32926,1964,2.0,3.0,1212.0,Square Feet,7840.8,Square Feet,172000.0,28.363901,-80.77032,2.0,79.0,False,0.0,False,False,Single Family Residence,www.zillow.com/homedetails/2481-Victor-Rd-Cocoa-FL-32926/43413838_zpid/
68,43456139,SINGLE_FAMILY,RECENTLY_SOLD,2024-01-25,20 days,140000.0,1150 Joyal Dr,32934,1959,1.0,2.0,1228.0,Square Feet,10018.0,Square Feet,181000.0,28.135654,-80.67264,0.0,16.0,False,0.0,False,False,nan,www.zillow.com/homedetails/1150-Joyal-Dr-Melbourne-FL-32934/43456139_zpid/
69,43504693,SINGLE_FAMILY,RECENTLY_SOLD,2024-01-25,20 days,215000.0,424 Foxdall Ave NE,32907,1985,2.0,3.0,1255.0,Square Feet,10890.0,Square Feet,215000.0,28.006662,-80.60863,0.0,90.0,False,0.0,False,False,Single Family Residence,www.zillow.com/homedetails/424-Foxdall-Ave-NE-Palm-Bay-FL-32907/43504693_zpid/
70,80769206,SINGLE_FAMILY,RECENTLY_SOLD,2024-01-25,20 days,14100.0,2836 Fitzpatrick Ave SW,32908,2006,2.0,3.0,2006.0,Square Feet,10018.0,Square Feet,207200.0,27.926256,-80.68094,2.0,26.0,False,0.0,False,False,nan,www.zillow.com/homedetails/2836-Fitzpatrick-Ave-SW-Palm-Bay-FL-32908/80769206_zpid/
71,43407021,SINGLE_FAMILY,RECENTLY_SOLD,2024-01-24,21 days,100000.0,2111 Otterbein Ave,32926,1968,1.0,3.0,1081.0,Square Feet,7405.2,Square Feet,138000.0,28.395378,-80.76127,7.0,217.0,False,0.0,False,False,Single Family Residence,www.zillow.com/homedetails/2111-Otterbein-Ave-Cocoa-FL-32926/43407021_zpid/
72,43494202,SINGLE_FAMILY,RECENTLY_SOLD,2024-01-24,21 days,200000.0,1233 York Cir,32904,1984,2.0,3.0,1524.0,Square Feet,14810.399999999996,Square Feet,0.0,28.052238,-80.64297,9.0,189.0,False,23.0,False,False,Single Family Residence,www.zillow.com/homedetails/1233-York-Cir-Melbourne-FL-32904/43494202_zpid/
73,43393692,SINGLE_FAMILY,RECENTLY_SOLD,2024-01-23,20 days,233200.0,6425 Stillwater Ave,32927,1988,2.0,4.0,1984.0,Square Feet,10019.0,Square Feet,0.0,28.471148,-80.80201,427.0,8740.0,False,0.0,False,True,Single Family Residence,www.zillow.com/homedetails/6425-Stillwater-Ave-Cocoa-FL-32927/43393692_zpid/
74,43408592,SINGLE_FAMILY,RECENTLY_SOLD,2024-01-23,22 days,165000.0,1319 N Fiske Blvd,32922,1956,2.0,3.0,1228.0,Square Feet,9147.6,Square Feet,0.0,28.375698,-80.74354,5.0,155.0,False,0.0,False,False,Single Family Residence,www.zillow.com/homedetails/1319-N-Fiske-Blvd-Cocoa-FL-32922/43408592_zpid/
75,43414423,SINGLE_FAMILY,RECENTLY_SOLD,2024-01-23,22 days,235000.0,132 Aurora St,32922,1960,2.0,4.0,1460.0,Square Feet,10454.0,Square Feet,235200.0,28.353252,-80.748566,2.0,128.0,False,0.0,False,False,Single Family Residence,www.zillow.com/homedetails/132-Aurora-St-Cocoa-FL-32922/43414423_zpid/
76,43452216,SINGLE_FAMILY,RECENTLY_SOLD,2024-01-23,22 days,226100.0,469 Wilson Ave,32937,1963,2.0,4.0,17853.0,Square Feet,7840.0,Square Feet,358400.0,28.18086,-80.60198,2.0,338.0,False,0.0,False,False,nan,www.zillow.com/homedetails/469-Wilson-Ave-Satellite-Beach-FL-32937/43452216_zpid/
77,43497505,SINGLE_FAMILY,RECENTLY_SOLD,2024-01-23,22 days,151100.0,2951 Gemini Ave NE,32905,1969,2.0,3.0,1328.0,Square Feet,7405.0,Square Feet,0.0,28.014677,-80.582375,1.0,62.0,False,0.0,False,False,nan,www.zillow.com/homedetails/2951-Gemini-Ave-NE-Palm-Bay-FL-32905/43497505_zpid/
78,43500031,SINGLE_FAMILY,RECENTLY_SOLD,2024-01-23,22 days,245000.0,733 Nevada Dr NE,32907,1987,2.0,3.0,1915.0,Square Feet,22651.2,Square Feet,245000.0,28.016708,-80.64481,1.0,198.0,False,0.0,False,False,Single Family Residence,www.zillow.com/homedetails/733-Nevada-Dr-NE-Palm-Bay-FL-32907/43500031_zpid/
79,43508909,SINGLE_FAMILY,RECENTLY_SOLD,2024-01-23,22 days,180000.0,180 San Luis St SW,32908,1983,2.0,3.0,896.0,Square Feet,10018.8,Square Feet,180100.0,27.992401,-80.67358,1.0,105.0,False,0.0,False,False,Single Family Residence,www.zillow.com/homedetails/180-San-Luis-St-SW-Palm-Bay-FL-32908/43508909_zpid/
80,43525003,SINGLE_FAMILY,RECENTLY_SOLD,2024-01-23,22 days,26300.0,419 Egret Cir,32976,1971,2.0,2.0,759.0,Square Feet,4791.0,Square Feet,0.0,27.883526,-80.509514,0.0,132.0,False,0.0,False,False,nan,www.zillow.com/homedetails/419-Egret-Cir-Barefoot-Bay-FL-32976/43525003_zpid/
81,54602725,SINGLE_FAMILY,RECENTLY_SOLD,2024-01-23,22 days,247200.0,1785 Milton St,32780,1964,2.0,3.0,2130.0,Square Feet,7405.0,Square Feet,247400.0,28.562899,-80.82181,0.0,47.0,False,0.0,False,False,nan,www.zillow.com/homedetails/1785-Milton-St-Titusville-FL-32780/54602725_zpid/
82,66694251,SINGLE_FAMILY,RECENTLY_SOLD,2024-01-23,22 days,105100.0,855 Atz Rd,32950,2004,3.0,3.0,3010.0,Square Feet,88861.99999999999,Square Feet,237600.0,27.983166,-80.605415,2.0,186.0,False,0.0,False,False,nan,www.zillow.com/homedetails/855-Atz-Rd-Malabar-FL-32950/66694251_zpid/
83,43376600,SINGLE_FAMILY,RECENTLY_SOLD,2024-01-22,23 days,62200.0,918 Wager Ave,32780,1953,1.0,3.0,864.0,Square Feet,12196.0,Square Feet,106800.0,28.604866,-80.81366,1.0,285.0,False,0.0,False,False,nan,www.zillow.com/homedetails/918-Wager-Ave-Titusville-FL-32780/43376600_zpid/
84,43379906,SINGLE_FAMILY,RECENTLY_SOLD,2024-01-22,23 days,173000.0,520 S Sunrise Dr,32780,1964,2.0,3.0,1204.0,Square Feet,7405.0,Square Feet,0.0,28.584026,-80.80755,0.0,102.0,False,0.0,True,False,Single Family Residence,www.zillow.com/homedetails/520-S-Sunrise-Dr-Titusville-FL-32780/43379906_zpid/
85,80777264,SINGLE_FAMILY,RECENTLY_SOLD,2024-01-22,23 days,50000.0,4121 Aiken Ln,32901,2006,2.0,4.0,1773.0,Square Feet,5662.0,Square Feet,0.0,28.047626,-80.61017,1.0,41.0,False,0.0,False,False,nan,www.zillow.com/homedetails/4121-Aiken-Ln-Melbourne-FL-32901/80777264_zpid/
86,84635624,SINGLE_FAMILY,RECENTLY_SOLD,2024-01-22,23 days,250000.0,3174 Metcalf Ave SW,32908,2007,2.0,3.0,1518.0,Square Feet,10018.8,Square Feet,250100.0,27.915472,-80.69543,3.0,60.0,False,0.0,False,False,Single Family Residence,www.zillow.com/homedetails/3174-Metcalf-Ave-SW-Palm-Bay-FL-32908/84635624_zpid/
87,2082094747,SINGLE_FAMILY,RECENTLY_SOLD,2024-01-22,23 days,209000.0,1680 Old Glory Blvd #0,32940,1990,2.0,2.0,1176.0,Square Feet,4791.6,Square Feet,209100.0,28.24983,-80.713,5.0,149.0,False,0.0,False,True,Single Family Residence,www.zillow.com/homedetails/1680-Old-Glory-Blvd-0-Melbourne-FL-32940/2082094747_zpid/
88,43370812,SINGLE_FAMILY,RECENTLY_SOLD,2024-01-19,26 days,220.0,3103 Highway 1,32754,1966,2.0,3.0,1386.0,Square Feet,20908.8,Square Feet,220300.0,28.68502,-80.85351,0.0,138.0,False,0.0,False,False,Single Family Residence,www.zillow.com/homedetails/3103-Highway-1-Mims-FL-32754/43370812_zpid/
89,43383332,SINGLE_FAMILY,RECENTLY_SOLD,2024-01-19,26 days,180500.0,4465 Swift Ave,32780,1960,2.0,3.0,1165.0,Square Feet,7840.8,Square Feet,243000.0,28.560892,-80.81559,0.0,72.0,False,0.0,False,False,Single Family Residence,www.zillow.com/homedetails/4465-Swift-Ave-Titusville-FL-32780/43383332_zpid/
90,43383376,SINGLE_FAMILY,RECENTLY_SOLD,2024-01-19,26 days,228000.0,4430 Shaw Ave,32780,1960,2.0,3.0,1150.0,Square Feet,7840.8,Square Feet,228200.0,28.56152,-80.81684,1.0,98.0,False,0.0,False,False,Single Family Residence,www.zillow.com/homedetails/4430-Shaw-Ave-Titusville-FL-32780/43383376_zpid/
91,43388183,SINGLE_FAMILY,RECENTLY_SOLD,2024-01-19,26 days,250000.0,7580 S Highway 1,32780,1952,2.0,3.0,2207.0,Square Feet,60548.0,Square Feet,250400.0,28.498743,-80.78194,1.0,29.0,False,0.0,False,False,nan,www.zillow.com/homedetails/7580-S-Highway-1-Titusville-FL-32780/43388183_zpid/
92,43408071,SINGLE_FAMILY,RECENTLY_SOLD,2024-01-19,26 days,113000.0,1703 Cambridge Dr,32922,1959,2.0,3.0,968.0,Square Feet,417435480.0,Square Feet,97800.0,28.380558,-80.75069,1.0,73.0,False,0.0,False,False,Single Family Residence,www.zillow.com/homedetails/1703-Cambridge-Dr-Cocoa-FL-32922/43408071_zpid/
93,43429115,SINGLE_FAMILY,RECENTLY_SOLD,2024-01-19,26 days,235000.0,827 Pine Shadows Ave,32955,1985,2.0,3.0,1510.0,Square Feet,7405.2,Square Feet,277300.0,28.321844,-80.72602,1.0,128.0,False,0.0,False,False,Single Family Residence,www.zillow.com/homedetails/827-Pine-Shadows-Ave-Rockledge-FL-32955/43429115_zpid/
94,43429481,SINGLE_FAMILY,RECENTLY_SOLD,2024-01-19,26 days,185500.0,7 Knollwood Dr,32955,1964,2.0,3.0,1480.0,Square Feet,9583.2,Square Feet,0.0,28.323494,-80.71235,2.0,105.0,False,0.0,True,False,Single Family Residence,www.zillow.com/homedetails/7-Knollwood-Dr-Rockledge-FL-32955/43429481_zpid/
95,43460049,SINGLE_FAMILY,RECENTLY_SOLD,2024-01-19,26 days,150000.0,3135 Shady Dell Ln APT 201,32935,1974,2.0,3.0,1174.0,Square Feet,2178.0,Square Feet,150200.0,28.159819,-80.64355,0.0,9.0,False,0.0,False,False,nan,www.zillow.com/homedetails/3135-Shady-Dell-Ln-APT-201-Melbourne-FL-32935/43460049_zpid/
96,43479677,SINGLE_FAMILY,RECENTLY_SOLD,2024-01-19,26 days,213500.0,1160 Kenmore St NW,32907,1986,2.0,3.0,1356.0,Square Feet,10018.0,Square Feet,269800.0,28.03367,-80.704704,0.0,37.0,False,0.0,False,False,nan,www.zillow.com/homedetails/1160-Kenmore-St-NW-Palm-Bay-FL-32907/43479677_zpid/
97,43483125,SINGLE_FAMILY,RECENTLY_SOLD,2024-01-19,26 days,215000.0,1361 Gilpin St NW,32907,1986,2.0,3.0,1056.0,Square Feet,10018.8,Square Feet,215700.0,28.027699,-80.710976,2.0,248.0,False,0.0,False,False,Single Family Residence,www.zillow.com/homedetails/1361-Gilpin-St-NW-Palm-Bay-FL-32907/43483125_zpid/
98,43501980,SINGLE_FAMILY,RECENTLY_SOLD,2024-01-19,26 days,189000.0,159 Copenhaver Ave NE,32907,1985,2.0,3.0,1462.0,Square Feet,10018.8,Square Feet,189200.0,28.001581,-80.65706,0.0,59.0,False,0.0,False,False,Single Family Residence,www.zillow.com/homedetails/159-Copenhaver-Ave-NE-Palm-Bay-FL-32907/43501980_zpid/
99,43513273,SINGLE_FAMILY,RECENTLY_SOLD,2024-01-19,26 days,212000.0,872 Autumn St SE,32909,1984,2.0,3.0,1025.0,Square Feet,10018.8,Square Feet,212700.0,27.975286,-80.64938,1.0,49.0,False,0.0,False,False,Single Family Residence,www.zillow.com/homedetails/872-Autumn-St-SE-Palm-Bay-FL-32909/43513273_zpid/
100,54618340,SINGLE_FAMILY,RECENTLY_SOLD,2024-01-19,26 days,210000.0,2911 Sailfish St NE,32905,1960,2.0,3.0,1725.0,Square Feet,12632.4,Square Feet,242400.0,28.029177,-80.58291,28.0,769.0,False,0.0,False,False,Single Family Residence,www.zillow.com/homedetails/2911-Sailfish-St-NE-Palm-Bay-FL-32905/54618340_zpid/
101,43384892,SINGLE_FAMILY,RECENTLY_SOLD,2024-01-18,27 days,217000.0,4735 Key Largo Dr W,32780,1962,2.0,3.0,1136.0,Square Feet,9148.0,Square Feet,224300.0,28.555878,-80.80976,0.0,49.0,False,0.0,False,False,Single Family Residence,www.zillow.com/homedetails/4735-Key-Largo-Dr-W-Titusville-FL-32780/43384892_zpid/
102,54601563,SINGLE_FAMILY,RECENTLY_SOLD,2024-01-18,27 days,129900.0,2179 Turpentine Rd,32754,1985,3.0,4.0,2716.0,Square Feet,87991.2,Square Feet,130100.0,28.65831,-80.881226,2.0,90.0,False,0.0,False,False,Single Family Residence,www.zillow.com/homedetails/2179-Turpentine-Rd-Mims-FL-32754/54601563_zpid/
103,54615745,SINGLE_FAMILY,RECENTLY_SOLD,2024-01-18,27 days,227000.0,536 E Ford Cir,32935,1968,2.0,3.0,1560.0,Square Feet,8712.0,Square Feet,251800.0,28.115536,-80.65194,2.0,148.0,False,0.0,False,False,Single Family Residence,www.zillow.com/homedetails/536-E-Ford-Cir-Melbourne-FL-32935/54615745_zpid/
104,43378517,SINGLE_FAMILY,RECENTLY_SOLD,2024-01-17,28 days,180000.0,1320 Dozier Ave,32780,1959,2.0,3.0,1624.0,Square Feet,8712.0,Square Feet,198500.0,28.599617,-80.82234,1.0,110.0,False,0.0,False,False,Single Family Residence,www.zillow.com/homedetails/1320-Dozier-Ave-Titusville-FL-32780/43378517_zpid/
105,43410684,SINGLE_FAMILY,RECENTLY_SOLD,2024-01-17,28 days,250000.0,340 Tiki Dr,32953,1965,2.0,4.0,1752.0,Square Feet,12196.799999999996,Square Feet,341700.0,28.374348,-80.69292,5.0,89.0,False,1.0,False,False,Single Family Residence,www.zillow.com/homedetails/340-Tiki-Dr-Merritt-Island-FL-32953/43410684_zpid/
106,43472041,SINGLE_FAMILY,RECENTLY_SOLD,2024-01-17,28 days,200000.0,658 Ironwood Dr,32935,1963,2.0,4.0,1694.0,Square Feet,7840.8,Square Feet,218300.0,28.117514,-80.64399,1.0,103.0,False,0.0,False,False,Single Family Residence,www.zillow.com/homedetails/658-Ironwood-Dr-Melbourne-FL-32935/43472041_zpid/
107,43498991,SINGLE_FAMILY,RECENTLY_SOLD,2024-01-17,28 days,240000.0,921 Wateroak Dr NE,32905,1988,2.0,2.0,933.0,Square Feet,4356.0,Square Feet,240800.0,28.02068,-80.61213,1.0,58.0,False,62.0,False,False,Single Family Residence,www.zillow.com/homedetails/921-Wateroak-Dr-NE-Palm-Bay-FL-32905/43498991_zpid/
108,54602126,SINGLE_FAMILY,RECENTLY_SOLD,2024-01-17,28 days,246500.0,1712 S Eden Cir,32796,1967,2.0,4.0,1736.0,Square Feet,7840.0,Square Feet,257500.0,28.612635,-80.82268,0.0,37.0,False,0.0,False,False,nan,www.zillow.com/homedetails/1712-S-Eden-Cir-Titusville-FL-32796/54602126_zpid/
109,43403557,SINGLE_FAMILY,RECENTLY_SOLD,2024-01-16,29 days,199900.0,3773 Brockington Cir,32926,1964,1.0,4.0,1216.0,Square Feet,8712.0,Square Feet,200000.0,28.349895,-80.78256,2.0,54.0,False,0.0,False,False,Single Family Residence,www.zillow.com/homedetails/3773-Brockington-Cir-Cocoa-FL-32926/43403557_zpid/
110,43429428,SINGLE_FAMILY,RECENTLY_SOLD,2024-01-16,29 days,239000.0,49 Scott Ln,32955,1959,2.0,3.0,2068.0,Square Feet,9147.6,Square Feet,239900.0,28.325415,-80.71576,0.0,92.0,False,0.0,False,False,Single Family Residence,www.zillow.com/homedetails/49-Scott-Ln-Rockledge-FL-32955/43429428_zpid/
111,43480289,SINGLE_FAMILY,RECENTLY_SOLD,2024-01-16,29 days,230000.0,1341 Jarvis St NW,32907,1990,2.0,3.0,1132.0,Square Feet,10454.4,Square Feet,230800.0,28.02963,-80.70927,1.0,43.0,False,0.0,False,False,Single Family Residence,www.zillow.com/homedetails/1341-Jarvis-St-NW-Palm-Bay-FL-32907/43480289_zpid/
112,43504936,SINGLE_FAMILY,RECENTLY_SOLD,2024-01-16,29 days,210000.0,1832 Ardmore St NE,32907,1993,2.0,3.0,1358.0,Square Feet,10018.0,Square Feet,276600.0,28.011885,-80.617935,0.0,10.0,False,0.0,False,False,nan,www.zillow.com/homedetails/1832-Ardmore-St-NE-Palm-Bay-FL-32907/43504936_zpid/
113,43415913,SINGLE_FAMILY,RECENTLY_SOLD,2024-01-15,30 days,233000.0,511 Palm Ave,32952,1959,2.0,5.0,1618.0,Square Feet,10890.0,Square Feet,233700.0,28.347834,-80.69491,0.0,86.0,False,0.0,False,False,Single Family Residence,www.zillow.com/homedetails/511-Palm-Ave-Merritt-Island-FL-32952/43415913_zpid/
114,43371945,SINGLE_FAMILY,RECENTLY_SOLD,2024-01-12,33 days,105000.0,2141 Trieste Dr,32754,1982,1.0,3.0,984.0,Square Feet,9147.0,Square Feet,105200.0,28.657145,-80.8641,0.0,24.0,False,0.0,False,False,nan,www.zillow.com/homedetails/2141-Trieste-Dr-Mims-FL-32754/43371945_zpid/
115,43380439,SINGLE_FAMILY,RECENTLY_SOLD,2024-01-12,33 days,250000.0,236 Pinedo Dr,32780,1960,2.0,3.0,1219.0,Square Feet,9147.6,Square Feet,251000.0,28.572302,-80.801384,1.0,53.0,False,0.0,False,False,Single Family Residence,www.zillow.com/homedetails/236-Pinedo-Dr-Titusville-FL-32780/43380439_zpid/
116,43383907,SINGLE_FAMILY,RECENTLY_SOLD,2024-01-12,33 days,220000.0,755 Delespine Ave,32780,1962,2.0,4.0,2100.0,Square Feet,10890.0,Square Feet,243600.0,28.56624,-80.809586,0.0,47.0,False,0.0,False,False,Single Family Residence,www.zillow.com/homedetails/755-Delespine-Ave-Titusville-FL-32780/43383907_zpid/
117,43392958,SINGLE_FAMILY,RECENTLY_SOLD,2024-01-12,33 days,195000.0,5589 Jamaica Rd,32927,1981,2.0,3.0,1176.0,Square Feet,10018.8,Square Feet,195800.0,28.463623,-80.81536,1.0,25.0,False,0.0,False,False,Single Family Residence,www.zillow.com/homedetails/5589-Jamaica-Rd-Cocoa-FL-32927/43392958_zpid/
118,43394608,SINGLE_FAMILY,RECENTLY_SOLD,2024-01-12,33 days,165000.0,6065 Rena Ave,32927,1987,2.0,3.0,1368.0,Square Feet,10454.4,Square Feet,171000.0,28.464827,-80.80119,1.0,70.0,False,0.0,False,False,Single Family Residence,www.zillow.com/homedetails/6065-Rena-Ave-Cocoa-FL-32927/43394608_zpid/
119,43405037,SINGLE_FAMILY,RECENTLY_SOLD,2024-01-12,33 days,240000.0,3014 Sea Gate Cir,32953,1983,2.0,2.0,1100.0,Square Feet,11325.6,Square Feet,241000.0,28.411724,-80.70755,1.0,101.0,False,0.0,False,False,Single Family Residence,www.zillow.com/homedetails/3014-Sea-Gate-Cir-Merritt-Island-FL-32953/43405037_zpid/
120,43430884,SINGLE_FAMILY,RECENTLY_SOLD,2024-01-12,33 days,246000.0,962 Bartlett Ln,32955,1966,2.0,3.0,1256.0,Square Feet,8712.0,Square Feet,247000.0,28.313927,-80.73468,0.0,43.0,False,0.0,False,False,Single Family Residence,www.zillow.com/homedetails/962-Bartlett-Ln-Rockledge-FL-32955/43430884_zpid/
121,43458104,SINGLE_FAMILY,RECENTLY_SOLD,2024-01-12,33 days,189000.0,7525 Sheridan Rd,32904,1957,1.0,3.0,1.0,Square Feet,12196.0,Square Feet,278300.0,28.088926,-80.674774,0.0,15.0,False,0.0,False,False,nan,www.zillow.com/homedetails/7525-Sheridan-Rd-West-Melbourne-FL-32904/43458104_zpid/
122,43469486,SINGLE_FAMILY,RECENTLY_SOLD,2024-01-12,33 days,194000.0,2514 Pepper Ave,32935,1962,2.0,3.0,816.0,Square Feet,6534.0,Square Feet,194800.0,28.123339,-80.6633,3.0,91.0,False,0.0,False,False,Single Family Residence,www.zillow.com/homedetails/2514-Pepper-Ave-Melbourne-FL-32935/43469486_zpid/
123,43472940,SINGLE_FAMILY,RECENTLY_SOLD,2024-01-12,33 days,245000.0,836 Pelican Ln,32935,1950,1.0,2.0,1000.0,Square Feet,9147.6,Square Feet,246000.0,28.120785,-80.62431,2.0,49.0,False,0.0,False,False,Single Family Residence,www.zillow.com/homedetails/836-Pelican-Ln-Melbourne-FL-32935/43472940_zpid/
124,43485195,SINGLE_FAMILY,RECENTLY_SOLD,2024-01-12,33 days,249000.0,532 Higgs Ave NW,32907,1988,2.0,3.0,1056.0,Square Feet,10454.4,Square Feet,249600.0,28.010258,-80.70777,0.0,50.0,False,0.0,False,False,Single Family Residence,www.zillow.com/homedetails/532-Higgs-Ave-NW-Palm-Bay-FL-32907/43485195_zpid/
125,52966968,SINGLE_FAMILY,RECENTLY_SOLD,2024-01-12,33 days,225000.0,459 Fountain St SW,32908,2003,2.0,3.0,2020.0,Square Feet,10018.8,Square Feet,295500.0,27.926014,-80.68335,1.0,42.0,False,0.0,False,False,Single Family Residence,www.zillow.com/homedetails/459-Fountain-St-SW-Palm-Bay-FL-32908/52966968_zpid/
126,54605032,SINGLE_FAMILY,RECENTLY_SOLD,2024-01-12,33 days,230100.0,1030 Cocoa St,32953,1963,2.0,3.0,1437.0,Square Feet,7405.2,Square Feet,230900.0,28.374674,-80.702995,1.0,45.0,False,0.0,False,False,Single Family Residence,www.zillow.com/homedetails/1030-Cocoa-St-Merritt-Island-FL-32953/54605032_zpid/
127,71023914,SINGLE_FAMILY,RECENTLY_SOLD,2024-01-12,33 days,160000.0,375 Lachine St SW,32908,2005,2.0,3.0,1858.0,Square Feet,10018.0,Square Feet,281700.0,27.937197,-80.67909,0.0,8.0,False,0.0,False,False,nan,www.zillow.com/homedetails/375-Lachine-St-SW-Palm-Bay-FL-32908/71023914_zpid/
128,43403520,SINGLE_FAMILY,RECENTLY_SOLD,2024-01-11,34 days,220000.0,3771 Catalina Dr,32926,1964,2.0,3.0,1066.0,Square Feet,7840.8,Square Feet,220900.0,28.348541,-80.78325,1.0,35.0,False,0.0,False,False,Single Family Residence,www.zillow.com/homedetails/3771-Catalina-Dr-Cocoa-FL-32926/43403520_zpid/
129,43471592,SINGLE_FAMILY,RECENTLY_SOLD,2024-01-11,34 days,160000.0,1814 Pontiac Cir N,32935,1964,2.0,3.0,1322.0,Square Feet,7840.0,Square Feet,160300.0,28.120611,-80.65025,0.0,33.0,False,0.0,False,False,nan,www.zillow.com/homedetails/1814-Pontiac-Cir-N-Melbourne-FL-32935/43471592_zpid/
130,43501939,SINGLE_FAMILY,RECENTLY_SOLD,2024-01-11,34 days,235000.0,535 Albatross St NE,32907,1979,1.0,3.0,1125.0,Square Feet,10890.0,Square Feet,236000.0,27.999414,-80.658554,0.0,24.0,False,0.0,False,False,Single Family Residence,www.zillow.com/homedetails/535-Albatross-St-NE-Palm-Bay-FL-32907/43501939_zpid/
131,43397998,SINGLE_FAMILY,RECENTLY_SOLD,2024-01-10,35 days,5000.0,6882 Columbine Dr,32927,1989,1.0,2.0,920.0,Square Feet,7405.0,Square Feet,59300.0,28.442627,-80.76976,0.0,32.0,False,0.0,False,False,nan,www.zillow.com/homedetails/6882-Columbine-Dr-Cocoa-FL-32927/43397998_zpid/
132,43467632,SINGLE_FAMILY,RECENTLY_SOLD,2024-01-10,35 days,125000.0,541 Ann Ave,32935,1962,1.0,3.0,1056.0,Square Feet,9583.0,Square Feet,192100.0,28.138662,-80.65351,1.0,28.0,False,0.0,False,False,nan,www.zillow.com/homedetails/541-Ann-Ave-Melbourne-FL-32935/43467632_zpid/
133,43479411,SINGLE_FAMILY,RECENTLY_SOLD,2024-01-10,35 days,191000.0,43 Emerson Dr NW,32907,1992,2.0,3.0,1615.0,Square Feet,10018.0,Square Feet,276900.0,28.032486,-80.725525,0.0,34.0,False,0.0,False,False,nan,www.zillow.com/homedetails/43-Emerson-Dr-NW-Palm-Bay-FL-32907/43479411_zpid/
134,43497044,SINGLE_FAMILY,RECENTLY_SOLD,2024-01-10,35 days,185000.0,710 Abeto St NE,32905,1973,2.0,2.0,1636.0,Square Feet,7840.8,Square Feet,235600.0,28.014164,-80.57711,0.0,22.0,False,0.0,False,False,Single Family Residence,www.zillow.com/homedetails/710-Abeto-St-NE-Palm-Bay-FL-32905/43497044_zpid/
135,43517273,SINGLE_FAMILY,RECENTLY_SOLD,2024-01-10,35 days,239900.0,1610 Sandusky St SE,32909,1994,2.0,3.0,1076.0,Square Feet,10018.8,Square Feet,240900.0,27.94395,-80.62531,2.0,39.0,False,0.0,False,False,Single Family Residence,www.zillow.com/homedetails/1610-Sandusky-St-SE-Palm-Bay-FL-32909/43517273_zpid/
136,43497238,SINGLE_FAMILY,RECENTLY_SOLD,2024-01-09,36 days,160000.0,961 Canal Ln NE,32905,1965,2.0,3.0,1296.0,Square Feet,9147.6,Square Feet,160700.0,28.02185,-80.5823,1.0,48.0,False,0.0,True,False,Single Family Residence,www.zillow.com/homedetails/961-Canal-Ln-NE-Palm-Bay-FL-32905/43497238_zpid/
137,54604046,SINGLE_FAMILY,RECENTLY_SOLD,2024-01-09,36 days,249000.0,1990 Juniper Cir,32926,1980,2.0,3.0,1526.0,Square Feet,44866.0,Square Feet,249500.0,28.391714,-80.80516,0.0,16.0,False,0.0,False,False,nan,www.zillow.com/homedetails/1990-Juniper-Cir-Cocoa-FL-32926/54604046_zpid/
138,43372446,SINGLE_FAMILY,RECENTLY_SOLD,2024-01-08,37 days,246000.0,2920 Beth St,32796,1964,2.0,3.0,1120.0,Square Feet,8276.4,Square Feet,0.0,28.646152,-80.840195,2.0,29.0,False,0.0,True,False,Single Family Residence,www.zillow.com/homedetails/2920-Beth-St-Titusville-FL-32796/43372446_zpid/
139,43379262,SINGLE_FAMILY,RECENTLY_SOLD,2024-01-08,37 days,233000.0,1311 Greenwood St,32780,1956,3.0,3.0,1577.0,Square Feet,10018.8,Square Feet,233900.0,28.599644,-80.82663,1.0,17.0,False,0.0,False,False,Single Family Residence,www.zillow.com/homedetails/1311-Greenwood-St-Titusville-FL-32780/43379262_zpid/
140,43415259,SINGLE_FAMILY,RECENTLY_SOLD,2024-01-08,37 days,175000.0,25 South St,32955,1914,1.0,2.0,771.0,Square Feet,12196.799999999996,Square Feet,170500.0,28.349077,-80.72529,0.0,43.0,False,0.0,False,False,Single Family Residence,www.zillow.com/homedetails/25-South-St-Rockledge-FL-32955/43415259_zpid/
141,43435480,SINGLE_FAMILY,RECENTLY_SOLD,2024-01-08,37 days,180000.0,750 Newfound Harbor Dr,32952,1950,1.0,2.0,867.0,Square Feet,12631.999999999998,Square Feet,225300.0,28.344196,-80.66487,0.0,9.0,False,0.0,False,False,nan,www.zillow.com/homedetails/750-Newfound-Harbor-Dr-Merritt-Island-FL-32952/43435480_zpid/
142,43468742,SINGLE_FAMILY,RECENTLY_SOLD,2024-01-08,37 days,170000.0,2193 Leewood Blvd,32935,1960,1.0,3.0,1033.0,Square Feet,7405.2,Square Feet,170800.0,28.13207,-80.657425,0.0,18.0,False,0.0,False,False,Single Family Residence,www.zillow.com/homedetails/2193-Leewood-Blvd-Melbourne-FL-32935/43468742_zpid/
143,43471123,SINGLE_FAMILY,RECENTLY_SOLD,2024-01-08,37 days,180000.0,1792 Jackson Ave,32935,1959,2.0,3.0,1134.0,Square Feet,9147.0,Square Feet,273600.0,28.126345,-80.64997,0.0,32.0,False,0.0,False,False,nan,www.zillow.com/homedetails/1792-Jackson-Ave-Melbourne-FL-32935/43471123_zpid/
144,43474923,SINGLE_FAMILY,RECENTLY_SOLD,2024-01-08,37 days,217500.0,341 Avenida De Paz,32903,1957,2.0,2.0,768.0,Square Feet,7405.0,Square Feet,218500.0,28.103785,-80.57613,2.0,54.0,False,0.0,False,False,nan,www.zillow.com/homedetails/341-Avenida-De-Paz-Indialantic-FL-32903/43474923_zpid/
145,43513558,SINGLE_FAMILY,RECENTLY_SOLD,2024-01-08,37 days,235000.0,1051 Pasadena Rd SE,32909,1983,2.0,2.0,888.0,Square Feet,10018.8,Square Feet,235400.0,27.97267,-80.640915,1.0,49.0,False,0.0,False,False,Single Family Residence,www.zillow.com/homedetails/1051-Pasadena-Rd-SE-Palm-Bay-FL-32909/43513558_zpid/
146,43376393,SINGLE_FAMILY,RECENTLY_SOLD,2024-01-05,40 days,245000.0,116 La Grange Ave,32796,1955,2.0,3.0,1293.0,Square Feet,13939.2,Square Feet,246000.0,28.6169,-80.813034,1.0,30.0,False,0.0,False,False,Single Family Residence,www.zillow.com/homedetails/116-La-Grange-Ave-Titusville-FL-32796/43376393_zpid/
147,43394796,SINGLE_FAMILY,RECENTLY_SOLD,2024-01-05,40 days,235000.0,6400 W Baker Cir,32927,1987,2.0,3.0,981.0,Square Feet,10018.8,Square Feet,236000.0,28.470993,-80.803474,1.0,30.0,False,0.0,False,False,Single Family Residence,www.zillow.com/homedetails/6400-W-Baker-Cir-Cocoa-FL-32927/43394796_zpid/
148,43402436,SINGLE_FAMILY,RECENTLY_SOLD,2024-01-05,40 days,110000.0,2516 Stratford Dr,32926,1961,1.5,3.0,1036.0,Square Feet,7405.0,Square Feet,142000.0,28.364294,-80.77367,0.0,12.0,False,0.0,False,False,nan,www.zillow.com/homedetails/2516-Stratford-Dr-Cocoa-FL-32926/43402436_zpid/
149,43411712,SINGLE_FAMILY,RECENTLY_SOLD,2024-01-05,40 days,233000.0,285 Patrick Ave,32953,1961,2.0,3.0,1294.0,Square Feet,7405.2,Square Feet,233800.0,28.366625,-80.694275,1.0,38.0,False,0.0,False,False,Single Family Residence,www.zillow.com/homedetails/285-Patrick-Ave-Merritt-Island-FL-32953/43411712_zpid/
150,43470725,SINGLE_FAMILY,RECENTLY_SOLD,2024-01-05,40 days,102500.0,574 Clarke Ave,32935,1968,2.0,4.0,1384.0,Square Feet,6534.0,Square Feet,230800.0,28.116236,-80.659065,0.0,46.0,False,0.0,False,False,nan,www.zillow.com/homedetails/574-Clarke-Ave-Melbourne-FL-32935/43470725_zpid/
151,43471909,SINGLE_FAMILY,RECENTLY_SOLD,2024-01-05,40 days,210000.0,1845 Ixora Dr W,32935,1968,2.0,3.0,1320.0,Square Feet,8276.4,Square Feet,210900.0,28.114367,-80.65058,0.0,34.0,False,0.0,False,False,Single Family Residence,www.zillow.com/homedetails/1845-Ixora-Dr-W-Melbourne-FL-32935/43471909_zpid/
152,55823717,SINGLE_FAMILY,RECENTLY_SOLD,2024-01-05,40 days,190000.0,1121 Gary Hunt Rd,32926,1984,1.0,1.0,800.0,Square Feet,44430.99999999999,Square Feet,190800.0,28.375587,-80.77702,0.0,7.0,False,0.0,False,False,nan,www.zillow.com/homedetails/1121-Gary-Hunt-Rd-Cocoa-FL-32926/55823717_zpid/
153,63471905,SINGLE_FAMILY,RECENTLY_SOLD,2024-01-05,40 days,174500.0,3646 Magoon Ave,32754,1977,2.0,2.0,1412.0,Square Feet,19166.0,Square Feet,253900.0,28.766909,-80.873146,0.0,15.0,False,0.0,False,False,nan,www.zillow.com/homedetails/3646-Magoon-Ave-Mims-FL-32754/63471905_zpid/
154,43415197,SINGLE_FAMILY,RECENTLY_SOLD,2024-01-04,41 days,190000.0,128 Saint Charles St,32922,1953,1.0,2.0,748.0,Square Feet,4791.6,Square Feet,190800.0,28.352053,-80.729034,1.0,32.0,False,0.0,False,False,Single Family Residence,www.zillow.com/homedetails/128-Saint-Charles-St-Cocoa-FL-32922/43415197_zpid/
155,43423131,SINGLE_FAMILY,RECENTLY_SOLD,2024-01-04,41 days,229900.0,80 N Lee Ct,32952,1978,2.0,2.0,961.0,Square Feet,5227.2,Square Feet,230900.0,28.3555,-80.66691,0.0,18.0,False,0.0,False,False,Single Family Residence,www.zillow.com/homedetails/80-N-Lee-Ct-Merritt-Island-FL-32952/43423131_zpid/
156,71022709,SINGLE_FAMILY,RECENTLY_SOLD,2024-01-04,41 days,235000.0,5145 Areca Palm St,32927,2005,2.0,3.0,1640.0,Square Feet,43995.6,Square Feet,250200.0,28.431673,-80.83382,0.0,33.0,False,0.0,False,False,Single Family Residence,www.zillow.com/homedetails/5145-Areca-Palm-St-Cocoa-FL-32927/71022709_zpid/
157,43376663,SINGLE_FAMILY,RECENTLY_SOLD,2024-01-03,42 days,235000.0,1107 1st Ave,32780,1986,3.0,3.0,1593.0,Square Feet,12196.799999999996,Square Feet,235600.0,28.60397,-80.81034,0.0,55.0,False,0.0,False,False,Single Family Residence,www.zillow.com/homedetails/1107-1st-Ave-Titusville-FL-32780/43376663_zpid/
158,43393022,SINGLE_FAMILY,RECENTLY_SOLD,2024-01-03,42 days,205000.0,5605 Holden Rd,32927,1990,2.0,4.0,1719.0,Square Feet,10018.8,Square Feet,207400.0,28.46382,-80.81731,0.0,20.0,False,0.0,False,False,Single Family Residence,www.zillow.com/homedetails/5605-Holden-Rd-Cocoa-FL-32927/43393022_zpid/
159,43467147,SINGLE_FAMILY,RECENTLY_SOLD,2024-01-03,42 days,243000.0,1534 Stewart Ave,32935,1960,1.0,2.0,950.0,Square Feet,13939.2,Square Feet,244100.0,28.131813,-80.63916,0.0,41.0,False,0.0,False,False,Single Family Residence,www.zillow.com/homedetails/1534-Stewart-Ave-Melbourne-FL-32935/43467147_zpid/
160,43475470,SINGLE_FAMILY,RECENTLY_SOLD,2024-01-03,42 days,40000.0,101 Herring St,32901,1976,1.0,3.0,1022.0,Square Feet,14810.399999999996,Square Feet,40100.0,28.106327,-80.623184,0.0,11.0,False,0.0,False,False,Single Family Residence,www.zillow.com/homedetails/101-Herring-St-Melbourne-FL-32901/43475470_zpid/
161,43526641,SINGLE_FAMILY,RECENTLY_SOLD,2024-01-03,42 days,215000.0,9420 Central Ave,32976,1952,1.0,2.0,952.0,Square Feet,20037.599999999995,Square Feet,216000.0,27.85604,-80.49766,0.0,28.0,False,0.0,False,False,Single Family Residence,www.zillow.com/homedetails/9420-Central-Ave-Micco-FL-32976/43526641_zpid/
162,54616318,SINGLE_FAMILY,RECENTLY_SOLD,2024-01-03,42 days,175000.0,690 Lorraine Dr,32935,1958,2.0,3.0,1385.0,Square Feet,10890.0,Square Feet,296800.0,28.1099,-80.62941,0.0,18.0,False,0.0,False,False,nan,www.zillow.com/homedetails/690-Lorraine-Dr-Melbourne-FL-32935/54616318_zpid/
163,80772321,SINGLE_FAMILY,RECENTLY_SOLD,2024-01-03,42 days,245000.0,1570 De Groodt Rd SW,32908,2006,2.0,3.0,2008.0,Square Feet,10018.0,Square Feet,246100.0,27.959059,-80.677956,1.0,26.0,False,0.0,False,False,nan,www.zillow.com/homedetails/1570-De-Groodt-Rd-SW-Palm-Bay-FL-32908/80772321_zpid/
164,251162515,SINGLE_FAMILY,RECENTLY_SOLD,2024-01-03,42 days,250000.0,1629 Rosetine St,32926,1997,2.0,3.0,1782.0,Square Feet,9350.0,Square Feet,251100.0,28.381603,-80.75653,0.0,16.0,False,0.0,False,False,nan,www.zillow.com/homedetails/1629-Rosetine-St-Cocoa-FL-32926/251162515_zpid/
165,43429470,SINGLE_FAMILY,RECENTLY_SOLD,2024-01-02,43 days,230000.0,35 Knollwood Dr,32955,1961,2.0,3.0,1209.0,Square Feet,7840.0,Square Feet,231100.0,28.32408,-80.71525,0.0,31.0,False,0.0,False,False,nan,www.zillow.com/homedetails/35-Knollwood-Dr-Rockledge-FL-32955/43429470_zpid/
166,43373068,SINGLE_FAMILY,RECENTLY_SOLD,2023-12-29,47 days,233000.0,3020 Avon Ln,32796,1964,2.0,3.0,1343.0,Square Feet,8712.0,Square Feet,234200.0,28.643553,-80.8417,0.0,13.0,False,0.0,False,False,nan,www.zillow.com/homedetails/3020-Avon-Ln-Titusville-FL-32796/43373068_zpid/
167,43379762,SINGLE_FAMILY,RECENTLY_SOLD,2023-12-29,47 days,200000.0,159 Beverly St,32780,1956,2.0,3.0,1363.0,Square Feet,7405.0,Square Feet,201000.0,28.583448,-80.80337,0.0,8.0,False,0.0,False,False,nan,www.zillow.com/homedetails/159-Beverly-St-Titusville-FL-32780/43379762_zpid/
168,43383537,SINGLE_FAMILY,RECENTLY_SOLD,2023-12-29,47 days,120000.0,4430 Byron Ave,32780,1962,1.0,2.0,903.0,Square Feet,51749280.0,Square Feet,120400.0,28.55981,-80.82976,0.0,7.0,False,0.0,False,False,Single Family Residence,www.zillow.com/homedetails/4430-Byron-Ave-Titusville-FL-32780/43383537_zpid/
169,43393300,SINGLE_FAMILY,RECENTLY_SOLD,2023-12-29,47 days,233000.0,6299 Deer Ln,32927,1984,2.0,3.0,832.0,Square Feet,10454.4,Square Feet,233800.0,28.468563,-80.81714,0.0,16.0,False,0.0,False,False,Single Family Residence,www.zillow.com/homedetails/6299-Deer-Ln-Cocoa-FL-32927/43393300_zpid/
170,43402391,SINGLE_FAMILY,RECENTLY_SOLD,2023-12-29,47 days,225000.0,2577 Stratford Dr,32926,1965,2.0,3.0,1380.0,Square Feet,7405.0,Square Feet,226100.0,28.366749,-80.77312,0.0,13.0,False,0.0,False,False,nan,www.zillow.com/homedetails/2577-Stratford-Dr-Cocoa-FL-32926/43402391_zpid/
171,43403158,SINGLE_FAMILY,RECENTLY_SOLD,2023-12-29,47 days,125000.0,251 Lincoln Rd,32926,2007,1.0,3.0,1480.0,Square Feet,6969.6,Square Feet,125400.0,28.35713,-80.78989,1.0,31.0,False,0.0,False,False,Single Family Residence,www.zillow.com/homedetails/251-Lincoln-Rd-Cocoa-FL-32926/43403158_zpid/
172,43408087,SINGLE_FAMILY,RECENTLY_SOLD,2023-12-29,47 days,198000.0,1205 Princeton Rd,32922,1959,2.0,3.0,1477.0,Square Feet,7840.8,Square Feet,200300.0,28.380568,-80.74862,0.0,13.0,False,0.0,False,False,Single Family Residence,www.zillow.com/homedetails/1205-Princeton-Rd-Cocoa-FL-32922/43408087_zpid/
173,43414574,SINGLE_FAMILY,RECENTLY_SOLD,2023-12-29,47 days,147500.0,723 Ixora Ave,32922,1963,2.0,3.0,1488.0,Square Feet,10018.8,Square Feet,148000.0,28.34951,-80.74748,0.0,52.0,False,0.0,False,False,Single Family Residence,www.zillow.com/homedetails/723-Ixora-Ave-Cocoa-FL-32922/43414574_zpid/
174,43488446,SINGLE_FAMILY,RECENTLY_SOLD,2023-12-29,47 days,247000.0,177 Woodland Dr,32904,1962,2.0,3.0,778.0,Square Feet,7405.2,Square Feet,248000.0,28.081945,-80.65809,0.0,18.0,False,0.0,False,False,Single Family Residence,www.zillow.com/homedetails/177-Woodland-Dr-West-Melbourne-FL-32904/43488446_zpid/
175,43492139,SINGLE_FAMILY,RECENTLY_SOLD,2023-12-29,47 days,235000.0,2550 Vernon Dr NE,32905,1957,2.0,3.0,1140.0,Square Feet,9583.2,Square Feet,236000.0,28.058758,-80.59379,0.0,23.0,False,0.0,False,False,Single Family Residence,www.zillow.com/homedetails/2550-Vernon-Dr-NE-Palm-Bay-FL-32905/43492139_zpid/
176,43492443,SINGLE_FAMILY,RECENTLY_SOLD,2023-12-29,47 days,122500.0,2264 Washington St NE,32905,1964,1.0,2.0,676.0,Square Feet,6969.0,Square Feet,177000.0,28.05578,-80.59904,0.0,19.0,False,0.0,False,False,nan,www.zillow.com/homedetails/2264-Washington-St-NE-Palm-Bay-FL-32905/43492443_zpid/
177,43493179,SINGLE_FAMILY,RECENTLY_SOLD,2023-12-29,47 days,195000.0,305 Crown Blvd,32901,1960,1.0,3.0,956.0,Square Feet,6098.4,Square Feet,195700.0,28.04578,-80.61648,0.0,14.0,False,0.0,False,False,Single Family Residence,www.zillow.com/homedetails/305-Crown-Blvd-Melbourne-FL-32901/43493179_zpid/
178,43498701,SINGLE_FAMILY,RECENTLY_SOLD,2023-12-29,47 days,239900.0,721 Arundo Ave NE,32905,1978,2.0,3.0,1386.0,Square Feet,11325.6,Square Feet,240900.0,28.014605,-80.61363,0.0,26.0,False,0.0,False,False,Single Family Residence,www.zillow.com/homedetails/721-Arundo-Ave-NE-Palm-Bay-FL-32905/43498701_zpid/
179,43510279,SINGLE_FAMILY,RECENTLY_SOLD,2023-12-29,47 days,219000.0,460 Harrington St SW,32908,1984,2.0,2.0,1032.0,Square Feet,11761.2,Square Feet,219600.0,27.983528,-80.68307,1.0,45.0,False,0.0,False,False,Single Family Residence,www.zillow.com/homedetails/460-Harrington-St-SW-Palm-Bay-FL-32908/43510279_zpid/
180,54616188,SINGLE_FAMILY,RECENTLY_SOLD,2023-12-29,47 days,15000.0,504 Latania Palm Dr,32903,1978,2.0,4.0,2122.0,Square Feet,14810.0,Square Feet,807100.0,28.111067,-80.58138,0.0,45.0,False,0.0,False,False,nan,www.zillow.com/homedetails/504-Latania-Palm-Dr-Indialantic-FL-32903/54616188_zpid/
181,43379789,SINGLE_FAMILY,RECENTLY_SOLD,2023-12-28,48 days,234000.0,169 Alhambra St,32780,1958,1.0,3.0,1168.0,Square Feet,14810.399999999996,Square Feet,235000.0,28.582775,-80.80365,1.0,11.0,False,0.0,False,False,Single Family Residence,www.zillow.com/homedetails/169-Alhambra-St-Titusville-FL-32780/43379789_zpid/
182,43393805,SINGLE_FAMILY,RECENTLY_SOLD,2023-12-28,42 days,213000.0,6010 Apple Ave,32927,1981,1.0,3.0,1536.0,Square Feet,10454.4,Square Feet,191800.0,28.463148,-80.791374,70.0,1920.0,False,0.0,True,False,Single Family Residence,www.zillow.com/homedetails/6010-Apple-Ave-Cocoa-FL-32927/43393805_zpid/
183,43394540,SINGLE_FAMILY,RECENTLY_SOLD,2023-12-28,48 days,172000.0,4640 Olympic Dr,32927,1980,2.0,3.0,1416.0,Square Feet,10018.8,Square Feet,213900.0,28.47057,-80.796425,2.0,35.0,False,0.0,False,False,Single Family Residence,www.zillow.com/homedetails/4640-Olympic-Dr-Cocoa-FL-32927/43394540_zpid/
184,43427865,SINGLE_FAMILY,RECENTLY_SOLD,2023-12-28,48 days,189100.0,1713 Fenway Cir,32955,1967,2.0,3.0,1503.0,Square Feet,8712.0,Square Feet,289200.0,28.329233,-80.748375,0.0,22.0,False,0.0,False,False,nan,www.zillow.com/homedetails/1713-Fenway-Cir-Rockledge-FL-32955/43427865_zpid/
185,43432788,SINGLE_FAMILY,RECENTLY_SOLD,2023-12-28,48 days,250000.0,1113 Sunday Dr,32955,1998,2.0,3.0,1577.0,Square Feet,13939.0,Square Feet,374800.0,28.30101,-80.727,0.0,19.0,False,0.0,False,False,nan,www.zillow.com/homedetails/1113-Sunday-Dr-Rockledge-FL-32955/43432788_zpid/
186,43435410,SINGLE_FAMILY,RECENTLY_SOLD,2023-12-28,48 days,149000.0,815 Newfound Harbor Dr,32952,1977,2.0,4.0,1765.0,Square Feet,16552.8,Square Feet,463700.0,28.343521,-80.665344,2.0,45.0,False,0.0,False,False,Single Family Residence,www.zillow.com/homedetails/815-Newfound-Harbor-Dr-Merritt-Island-FL-32952/43435410_zpid/
187,43468077,SINGLE_FAMILY,RECENTLY_SOLD,2023-12-28,48 days,100100.0,424 Linda Ln,32935,1960,2.0,2.0,1632.0,Square Feet,13068.0,Square Feet,212800.0,28.136791,-80.657936,1.0,33.0,False,0.0,False,False,nan,www.zillow.com/homedetails/424-Linda-Ln-Melbourne-FL-32935/43468077_zpid/
188,43471366,SINGLE_FAMILY,RECENTLY_SOLD,2023-12-28,10 days,185000.0,1651 Arthur Ave,32935,1960,2.0,3.0,988.0,Square Feet,7840.8,Square Feet,262600.0,28.123,-80.64716,45.0,1063.0,False,0.0,False,False,Single Family Residence,www.zillow.com/homedetails/1651-Arthur-Ave-Melbourne-FL-32935/43471366_zpid/
189,43475111,SINGLE_FAMILY,RECENTLY_SOLD,2023-12-28,48 days,150000.0,101 Bluff Ter,32901,1958,2.0,3.0,1296.0,Square Feet,17859.0,Square Feet,150800.0,28.102308,-80.619576,0.0,5.0,False,0.0,False,False,nan,www.zillow.com/homedetails/101-Bluff-Ter-Melbourne-FL-32901/43475111_zpid/
190,43481987,SINGLE_FAMILY,RECENTLY_SOLD,2023-12-28,48 days,210500.0,1050 Sheridan Ave NW,32907,1992,2.0,3.0,1128.0,Square Feet,10018.8,Square Feet,229300.0,28.02307,-80.70366,1.0,34.0,False,0.0,False,False,Single Family Residence,www.zillow.com/homedetails/1050-Sheridan-Ave-NW-Palm-Bay-FL-32907/43481987_zpid/
191,43498459,SINGLE_FAMILY,RECENTLY_SOLD,2023-12-28,41 days,223000.0,1994 Mark Twain Ln NE,32905,1976,2.0,3.0,2019.0,Square Feet,18295.2,Square Feet,0.0,28.02043,-80.61409,14.0,360.0,False,0.0,True,False,Single Family Residence,www.zillow.com/homedetails/1994-Mark-Twain-Ln-NE-Palm-Bay-FL-32905/43498459_zpid/
192,54608668,SINGLE_FAMILY,RECENTLY_SOLD,2023-12-28,48 days,165000.0,1067 Lee Ave,32955,1970,2.0,3.0,1000.0,Square Feet,7840.0,Square Feet,165900.0,28.315655,-80.74545,0.0,16.0,False,0.0,False,False,nan,www.zillow.com/homedetails/1067-Lee-Ave-Rockledge-FL-32955/54608668_zpid/
193,66682665,SINGLE_FAMILY,PENDING,2023-12-28,22 days,285000.0,749 Fernandina St NW,32907,2004,2.0,3.0,1398.0,Square Feet,10018.8,Square Feet,274200.0,28.012882,-80.69078,442.0,6927.0,False,0.0,False,False,Single Family Residence,www.zillow.com/homedetails/749-Fernandina-St-NW-Palm-Bay-FL-32907/66682665_zpid/
194,43372360,SINGLE_FAMILY,RECENTLY_SOLD,2023-12-27,49 days,120000.0,1760 Cowan Dr,32796,1961,2.0,3.0,1034.0,Square Feet,9147.0,Square Feet,194500.0,28.645054,-80.84257,0.0,6.0,False,0.0,False,False,nan,www.zillow.com/homedetails/1760-Cowan-Dr-Titusville-FL-32796/43372360_zpid/
195,43372377,SINGLE_FAMILY,RECENTLY_SOLD,2023-12-27,49 days,220000.0,1795 Cowan Dr,32796,1961,1.0,3.0,864.0,Square Feet,9147.6,Square Feet,221200.0,28.645681,-80.84207,1.0,16.0,False,0.0,False,False,Single Family Residence,www.zillow.com/homedetails/1795-Cowan-Dr-Titusville-FL-32796/43372377_zpid/
196,43407202,SINGLE_FAMILY,RECENTLY_SOLD,2023-12-27,4 days,219900.0,2515 Stanford Dr,32926,1965,2.0,3.0,1328.0,Square Feet,8276.4,Square Feet,326600.0,28.390812,-80.75896,28.0,490.0,False,0.0,False,False,Single Family Residence,www.zillow.com/homedetails/2515-Stanford-Dr-Cocoa-FL-32926/43407202_zpid/
197,43468718,SINGLE_FAMILY,RECENTLY_SOLD,2023-12-27,49 days,140000.0,2184 Shelby Dr,32935,1960,1.0,2.0,920.0,Square Feet,6534.0,Square Feet,188700.0,28.13106,-80.65722,0.0,29.0,False,0.0,False,False,nan,www.zillow.com/homedetails/2184-Shelby-Dr-Melbourne-FL-32935/43468718_zpid/
198,43486012,SINGLE_FAMILY,RECENTLY_SOLD,2023-12-27,49 days,140000.0,113 Americana Blvd NW,32907,1980,2.0,3.0,1025.0,Square Feet,10454.4,Square Feet,182100.0,28.011328,-80.67269,0.0,29.0,False,0.0,False,False,Single Family Residence,www.zillow.com/homedetails/113-Americana-Blvd-NW-Palm-Bay-FL-32907/43486012_zpid/
199,43501472,SINGLE_FAMILY,RECENTLY_SOLD,2023-12-27,49 days,250000.0,517 Audubon Ave NE,32907,1979,2.0,3.0,1456.0,Square Feet,20908.0,Square Feet,251300.0,28.010109,-80.659836,0.0,15.0,False,0.0,False,False,nan,www.zillow.com/homedetails/517-Audubon-Ave-NE-Palm-Bay-FL-32907/43501472_zpid/
200,43502043,SINGLE_FAMILY,RECENTLY_SOLD,2023-12-27,41 days,250000.0,401 Almansa St NE,32907,1981,2.0,4.0,1638.0,Square Feet,11761.2,Square Feet,301500.0,28.004236,-80.66262,23.0,282.0,False,0.0,False,False,Single Family Residence,www.zillow.com/homedetails/401-Almansa-St-NE-Palm-Bay-FL-32907/43502043_zpid/
201,66693734,SINGLE_FAMILY,RECENTLY_SOLD,2023-12-27,49 days,32200.0,492 Melanie Cir,32901,2004,2.0,3.0,1911.0,Square Feet,7840.0,Square Feet,329300.0,28.046642,-80.62962,0.0,7.0,False,0.0,False,False,nan,www.zillow.com/homedetails/492-Melanie-Cir-Melbourne-FL-32901/66693734_zpid/
202,153630952,SINGLE_FAMILY,RECENTLY_SOLD,2023-12-27,49 days,232000.0,1313 Stetson Dr S,32922,1963,1.0,3.0,1081.0,Square Feet,12631.999999999998,Square Feet,233200.0,28.373928,-80.763756,0.0,14.0,False,0.0,False,False,nan,www.zillow.com/homedetails/1313-Stetson-Dr-S-Cocoa-FL-32922/153630952_zpid/
203,2058422983,SINGLE_FAMILY,RECENTLY_SOLD,2023-12-27,49 days,232000.0,1313 S Stetson Dr,32922,1963,2.0,3.0,1081.0,Square Feet,12632.4,Square Feet,232800.0,28.373932,-80.763756,0.0,12.0,False,0.0,False,False,Single Family Residence,www.zillow.com/homedetails/1313-S-Stetson-Dr-Cocoa-FL-32922/2058422983_zpid/
204,43372679,SINGLE_FAMILY,RECENTLY_SOLD,2023-12-26,50 days,230000.0,3225 Barbara Ln,32796,1967,2.0,4.0,1248.0,Square Feet,9147.6,Square Feet,231300.0,28.645147,-80.8449,0.0,18.0,False,0.0,False,False,Single Family Residence,www.zillow.com/homedetails/3225-Barbara-Ln-Titusville-FL-32796/43372679_zpid/
205,43384669,SINGLE_FAMILY,RECENTLY_SOLD,2023-12-25,51 days,245000.0,330 Willow St,32780,1962,2.0,3.0,1430.0,Square Feet,18730.8,Square Feet,245900.0,28.558632,-80.804016,0.0,9.0,False,0.0,False,False,Single Family Residence,www.zillow.com/homedetails/330-Willow-St-Titusville-FL-32780/43384669_zpid/
206,43370877,SINGLE_FAMILY,RECENTLY_SOLD,2023-12-22,54 days,125000.0,2957 Hartman Ln,32754,1958,1.0,3.0,768.0,Square Feet,4791.6,Square Feet,125500.0,28.67988,-80.85487,0.0,16.0,False,0.0,False,False,Single Family Residence,www.zillow.com/homedetails/2957-Hartman-Ln-Mims-FL-32754/43370877_zpid/
207,43376373,SINGLE_FAMILY,RECENTLY_SOLD,2023-12-22,54 days,152000.0,305 Elaine Dr,32796,1955,2.0,3.0,1085.0,Square Feet,6969.6,Square Feet,159800.0,28.618156,-80.81356,2.0,22.0,False,0.0,False,False,Single Family Residence,www.zillow.com/homedetails/305-Elaine-Dr-Titusville-FL-32796/43376373_zpid/
208,43411098,SINGLE_FAMILY,RECENTLY_SOLD,2023-12-22,54 days,170000.0,355 Hunt Dr,32953,1961,2.0,3.0,1490.0,Square Feet,16116.999999999998,Square Feet,266700.0,28.367998,-80.7074,0.0,9.0,False,0.0,False,False,nan,www.zillow.com/homedetails/355-Hunt-Dr-Merritt-Island-FL-32953/43411098_zpid/
209,43435829,SINGLE_FAMILY,RECENTLY_SOLD,2023-12-22,54 days,250000.0,1835 Via Roma,32952,1967,2.0,3.0,984.0,Square Feet,7841.0,Square Feet,250900.0,28.326412,-80.66199,0.0,27.0,False,0.0,False,False,Single Family Residence,www.zillow.com/homedetails/1835-Via-Roma-Merritt-Island-FL-32952/43435829_zpid/
210,43473015,SINGLE_FAMILY,RECENTLY_SOLD,2023-12-22,54 days,222706.0,833 Brookside Dr,32903,1972,2.0,4.0,3686.0,Square Feet,17859.0,Square Feet,859100.0,28.121092,-80.59001,0.0,23.0,False,0.0,False,False,nan,www.zillow.com/homedetails/833-Brookside-Dr-Melbourne-FL-32903/43473015_zpid/
211,43424880,SINGLE_FAMILY,RECENTLY_SOLD,2023-12-21,55 days,118000.0,1276 Emma Dr,32952,1954,1.0,3.0,1485.0,Square Feet,7405.0,Square Feet,150300.0,28.335045,-80.69133,0.0,7.0,False,0.0,False,False,nan,www.zillow.com/homedetails/1276-Emma-Dr-Merritt-Island-FL-32952/43424880_zpid/
212,43487791,SINGLE_FAMILY,RECENTLY_SOLD,2023-12-21,55 days,214900.0,2306 Hyde Pkwy,32901,1964,2.0,3.0,1368.0,Square Feet,12196.799999999996,Square Feet,228500.0,28.074242,-80.62252,0.0,101.0,False,0.0,False,False,Single Family Residence,www.zillow.com/homedetails/2306-Hyde-Pkwy-Melbourne-FL-32901/43487791_zpid/
213,43495586,SINGLE_FAMILY,RECENTLY_SOLD,2023-12-21,55 days,185000.0,1576 Magnolia St NE,32905,1979,2.0,3.0,1408.0,Square Feet,7405.2,Square Feet,186200.0,28.037325,-80.58926,3.0,83.0,False,0.0,False,False,Single Family Residence,www.zillow.com/homedetails/1576-Magnolia-St-NE-Palm-Bay-FL-32905/43495586_zpid/
214,43496964,SINGLE_FAMILY,RECENTLY_SOLD,2023-12-21,55 days,235000.0,824 Cadez St NE,32905,1967,1.0,2.0,1247.0,Square Feet,7405.2,Square Feet,235800.0,28.016304,-80.57934,0.0,11.0,False,0.0,False,False,Single Family Residence,www.zillow.com/homedetails/824-Cadez-St-NE-Palm-Bay-FL-32905/43496964_zpid/
215,50124900,SINGLE_FAMILY,RECENTLY_SOLD,2023-12-21,1 day,140000.0,115 Primrose Ln,32901,1956,1.0,2.0,932.0,Square Feet,7405.2,Square Feet,0.0,28.097849,-80.6172,2.0,145.0,False,0.0,False,False,Single Family Residence,www.zillow.com/homedetails/115-Primrose-Ln-Melbourne-FL-32901/50124900_zpid/
216,71023372,SINGLE_FAMILY,RECENTLY_SOLD,2023-12-21,55 days,230000.0,475 Borraclough Ave NW,32907,1980,2.0,3.0,1382.0,Square Feet,20037.599999999995,Square Feet,230800.0,28.009151,-80.68585,1.0,36.0,False,0.0,False,False,Single Family Residence,www.zillow.com/homedetails/475-Borraclough-Ave-NW-Palm-Bay-FL-32907/71023372_zpid/
217,43374073,SINGLE_FAMILY,RECENTLY_SOLD,2023-12-20,56 days,150000.0,3750 W Powder Horn Rd,32796,1982,2.0,2.0,1294.0,Square Feet,10890.0,Square Feet,252400.0,28.63795,-80.85552,0.0,9.0,False,0.0,False,False,nan,www.zillow.com/homedetails/3750-W-Powder-Horn-Rd-Titusville-FL-32796/43374073_zpid/
218,43385049,SINGLE_FAMILY,RECENTLY_SOLD,2023-12-20,56 days,249000.0,600 Jana Dr,32780,1964,2.0,3.0,1558.0,Square Feet,7405.2,Square Feet,250600.0,28.55223,-80.807945,0.0,15.0,False,0.0,False,False,Single Family Residence,www.zillow.com/homedetails/600-Jana-Dr-Titusville-FL-32780/43385049_zpid/
219,43395602,SINGLE_FAMILY,RECENTLY_SOLD,2023-12-20,56 days,105000.0,6260 Marcy St,32927,1981,2.0,3.0,1530.0,Square Feet,10018.0,Square Feet,105700.0,28.46849,-80.78748,0.0,37.0,False,0.0,False,False,nan,www.zillow.com/homedetails/6260-Marcy-St-Cocoa-FL-32927/43395602_zpid/
220,43468602,SINGLE_FAMILY,RECENTLY_SOLD,2023-12-20,56 days,170000.0,1497 Breeze Ln,32935,1964,2.0,2.0,960.0,Square Feet,7405.0,Square Feet,238300.0,28.131264,-80.6676,0.0,10.0,False,0.0,False,False,nan,www.zillow.com/homedetails/1497-Breeze-Ln-Melbourne-FL-32935/43468602_zpid/
221,43470815,SINGLE_FAMILY,RECENTLY_SOLD,2023-12-20,35 days,215000.0,501 Buckingham Ave,32935,1967,2.0,3.0,1477.0,Square Feet,8276.4,Square Feet,292900.0,28.114914,-80.65702,58.0,721.0,False,0.0,False,False,Single Family Residence,www.zillow.com/homedetails/501-Buckingham-Ave-Melbourne-FL-32935/43470815_zpid/
222,43485077,SINGLE_FAMILY,RECENTLY_SOLD,2023-12-20,56 days,210000.0,1562 Holcomb St NW,32907,1987,1.0,2.0,850.0,Square Feet,10454.4,Square Feet,210700.0,28.009958,-80.716896,0.0,10.0,False,0.0,False,False,Single Family Residence,www.zillow.com/homedetails/1562-Holcomb-St-NW-Palm-Bay-FL-32907/43485077_zpid/
223,43371641,SINGLE_FAMILY,RECENTLY_SOLD,2023-12-19,57 days,61333.0,4008 Center St,32754,1965,1.0,1.0,364.0,Square Feet,58370.00000000001,Square Feet,89200.0,28.66794,-80.86172,0.0,1.0,False,0.0,False,False,nan,www.zillow.com/homedetails/4008-Center-St-Mims-FL-32754/43371641_zpid/
224,43372302,SINGLE_FAMILY,RECENTLY_SOLD,2023-12-19,57 days,126500.0,3372 Oklahoma St,32796,1958,1.0,3.0,1531.0,Square Feet,11325.6,Square Feet,119600.0,28.651249,-80.84412,0.0,7.0,False,0.0,False,False,Single Family Residence,www.zillow.com/homedetails/3372-Oklahoma-St-Titusville-FL-32796/43372302_zpid/
225,43477552,SINGLE_FAMILY,RECENTLY_SOLD,2023-12-19,57 days,166000.0,2250 Wilcox St,32904,1961,2.0,3.0,1172.0,Square Feet,16116.999999999998,Square Feet,167000.0,28.073935,-80.68433,0.0,15.0,False,0.0,False,False,nan,www.zillow.com/homedetails/2250-Wilcox-St-Melbourne-FL-32904/43477552_zpid/
226,43497077,SINGLE_FAMILY,RECENTLY_SOLD,2023-12-19,57 days,200000.0,1173 Cabot Dr NE,32905,1961,1.0,2.0,949.0,Square Feet,9583.2,Square Feet,200700.0,28.026237,-80.5799,0.0,28.0,False,0.0,False,False,Single Family Residence,www.zillow.com/homedetails/1173-Cabot-Dr-NE-Palm-Bay-FL-32905/43497077_zpid/
227,52397126,SINGLE_FAMILY,RECENTLY_SOLD,2023-12-19,57 days,55400.0,145 Calico Ln,32903,2000,2.0,3.0,1927.0,Square Feet,3484.8,Square Feet,506800.0,28.133158,-80.584045,0.0,19.0,False,125.0,False,False,Single Family Residence,www.zillow.com/homedetails/145-Calico-Ln-Melbourne-FL-32903/52397126_zpid/
228,43374686,SINGLE_FAMILY,RECENTLY_SOLD,2023-12-18,58 days,150000.0,4045 Alachua Ave,32796,1965,2.0,3.0,1282.0,Square Feet,7405.0,Square Feet,273600.0,28.626234,-80.8614,0.0,25.0,False,0.0,False,False,nan,www.zillow.com/homedetails/4045-Alachua-Ave-Titusville-FL-32796/43374686_zpid/
229,43412596,SINGLE_FAMILY,RECENTLY_SOLD,2023-12-18,36 days,125000.0,322 Pine Ave,32922,1958,1.0,3.0,800.0,Square Feet,15245.999999999998,Square Feet,202700.0,28.361523,-80.74907,44.0,639.0,False,0.0,False,False,Single Family Residence,www.zillow.com/homedetails/322-Pine-Ave-Cocoa-FL-32922/43412596_zpid/
230,43483772,SINGLE_FAMILY,RECENTLY_SOLD,2023-12-18,58 days,210000.0,1519 Heartwellville St NW,32907,1987,2.0,3.0,1356.0,Square Feet,10018.0,Square Feet,295000.0,28.020418,-80.71733,1.0,22.0,False,0.0,False,False,nan,www.zillow.com/homedetails/1519-Heartwellville-St-NW-Palm-Bay-FL-32907/43483772_zpid/
231,54608360,SINGLE_FAMILY,RECENTLY_SOLD,2023-12-18,58 days,123500.0,1415 Hagen Ln,32955,1966,2.0,3.0,2007.0,Square Feet,8712.0,Square Feet,124100.0,28.332792,-80.73991,0.0,13.0,False,0.0,False,False,nan,www.zillow.com/homedetails/1415-Hagen-Ln-Rockledge-FL-32955/54608360_zpid/
232,43403519,SINGLE_FAMILY,RECENTLY_SOLD,2023-12-15,61 days,186500.0,3782 Catalina Dr,32926,1964,2.0,3.0,1404.0,Square Feet,8712.0,Square Feet,187800.0,28.349234,-80.78327,0.0,0.0,False,0.0,False,False,Single Family Residence,www.zillow.com/homedetails/3782-Catalina-Dr-Cocoa-FL-32926/43403519_zpid/
233,43412071,SINGLE_FAMILY,RECENTLY_SOLD,2023-12-15,61 days,175000.0,107 Grimes St,32922,1965,1.0,1.0,546.0,Square Feet,3049.0,Square Feet,175700.0,28.364677,-80.73314,0.0,13.0,False,0.0,False,False,"Apartment', 'Single Family Residence",www.zillow.com/homedetails/107-Grimes-St-Cocoa-FL-32922/43412071_zpid/
234,43412552,SINGLE_FAMILY,RECENTLY_SOLD,2023-12-15,61 days,77000.0,1425 Wilson Rd,32922,1957,1.0,3.0,1000.0,Square Feet,10454.4,Square Feet,77300.0,28.365566,-80.75228,0.0,25.0,False,0.0,False,False,Single Family Residence,www.zillow.com/homedetails/1425-Wilson-Rd-Cocoa-FL-32922/43412552_zpid/
235,43455148,SINGLE_FAMILY,RECENTLY_SOLD,2023-12-15,61 days,245000.0,2790 Woodsmill Dr,32934,1984,2.0,3.0,1080.0,Square Feet,9147.6,Square Feet,290800.0,28.15249,-80.67708,0.0,47.0,False,22.0,False,False,Single Family Residence,www.zillow.com/homedetails/2790-Woodsmill-Dr-Melbourne-FL-32934/43455148_zpid/
236,43481526,SINGLE_FAMILY,RECENTLY_SOLD,2023-12-15,61 days,213500.0,232 Treu Ter NW,32907,1984,2.0,3.0,1457.0,Square Feet,13068.0,Square Feet,244600.0,28.030273,-80.675606,0.0,29.0,False,0.0,False,False,Single Family Residence,www.zillow.com/homedetails/232-Treu-Ter-NW-Palm-Bay-FL-32907/43481526_zpid/
237,43493026,SINGLE_FAMILY,RECENTLY_SOLD,2023-12-15,61 days,111000.0,2584 Southover Dr NE,32905,1964,1.0,3.0,768.0,Square Feet,7405.2,Square Feet,0.0,28.047476,-80.593956,3.0,39.0,False,0.0,False,False,Single Family Residence,www.zillow.com/homedetails/2584-Southover-Dr-NE-Palm-Bay-FL-32905/43493026_zpid/
238,43495270,SINGLE_FAMILY,RECENTLY_SOLD,2023-12-15,61 days,203333.0,1497 Krin Ct NE,32905,1974,2.0,3.0,1712.0,Square Feet,14373.999999999996,Square Feet,294800.0,28.028435,-80.63,0.0,14.0,False,0.0,False,False,nan,www.zillow.com/homedetails/1497-Krin-Ct-NE-Palm-Bay-FL-32905/43495270_zpid/
239,43510412,SINGLE_FAMILY,RECENTLY_SOLD,2023-12-15,61 days,239000.0,691 De Groodt Rd SW,32908,1986,2.0,3.0,1040.0,Square Feet,20037.599999999995,Square Feet,240000.0,27.983055,-80.674,1.0,26.0,False,0.0,False,False,Single Family Residence,www.zillow.com/homedetails/691-De-Groodt-Rd-SW-Palm-Bay-FL-32908/43510412_zpid/
240,43515011,SINGLE_FAMILY,RECENTLY_SOLD,2023-12-15,61 days,215000.0,1578 Rachel Ave SE,32909,1986,2.0,2.0,972.0,Square Feet,10018.8,Square Feet,215900.0,27.959631,-80.64682,1.0,17.0,False,0.0,False,False,Single Family Residence,www.zillow.com/homedetails/1578-Rachel-Ave-SE-Palm-Bay-FL-32909/43515011_zpid/
241,43375845,SINGLE_FAMILY,RECENTLY_SOLD,2023-12-14,62 days,95000.0,20 Morgan Dr,32796,1965,1.0,1.0,408.0,Square Feet,6098.0,Square Feet,95500.0,28.61595,-80.83427,0.0,20.0,False,0.0,False,False,nan,www.zillow.com/homedetails/20-Morgan-Dr-Titusville-FL-32796/43375845_zpid/
242,43378046,SINGLE_FAMILY,RECENTLY_SOLD,2023-12-14,62 days,240000.0,3416 Willis Dr,32796,1967,2.0,3.0,1268.0,Square Feet,8712.0,Square Feet,241700.0,28.589725,-80.84848,0.0,25.0,False,0.0,False,False,Single Family Residence,www.zillow.com/homedetails/3416-Willis-Dr-Titusville-FL-32796/43378046_zpid/
243,43451090,SINGLE_FAMILY,RECENTLY_SOLD,2023-12-14,12 days,180000.0,2613 Coventry Rd,32935,1959,2.0,3.0,912.0,Square Feet,7840.8,Square Feet,263900.0,28.17265,-80.66574,100.0,1656.0,False,0.0,False,False,Single Family Residence,www.zillow.com/homedetails/2613-Coventry-Rd-Melbourne-FL-32935/43451090_zpid/
244,54615713,SINGLE_FAMILY,RECENTLY_SOLD,2023-12-14,5 days,180000.0,1219 Garfield St,32935,1963,2.0,3.0,1176.0,Square Feet,8276.4,Square Feet,271200.0,28.1268,-80.64947,150.0,1319.0,False,0.0,False,False,Single Family Residence,www.zillow.com/homedetails/1219-Garfield-St-Melbourne-FL-32935/54615713_zpid/
245,43406593,SINGLE_FAMILY,RECENTLY_SOLD,2023-12-13,63 days,225000.0,314 Fairmont Dr,32922,1964,2.0,3.0,1100.0,Square Feet,6534.0,Square Feet,226100.0,28.39185,-80.74647,0.0,16.0,False,0.0,False,False,nan,www.zillow.com/homedetails/314-Fairmont-Dr-Cocoa-FL-32922/43406593_zpid/
246,43512851,SINGLE_FAMILY,RECENTLY_SOLD,2023-12-13,63 days,230000.0,506 Collings St SE,32909,1983,1.0,3.0,900.0,Square Feet,10019.0,Square Feet,230600.0,27.976196,-80.65941,1.0,25.0,False,0.0,False,False,Single Family Residence,www.zillow.com/homedetails/506-Collings-St-SE-Palm-Bay-FL-32909/43512851_zpid/
247,84637748,SINGLE_FAMILY,RECENTLY_SOLD,2023-12-13,63 days,23000.0,3330 Hield Rd,32904,1978,2.0,3.0,2992.0,Square Feet,507909.0,Square Feet,0.0,28.040787,-80.67773,1.0,19.0,False,0.0,False,False,nan,www.zillow.com/homedetails/3330-Hield-Rd-Melbourne-FL-32904/84637748_zpid/
248,43415125,SINGLE_FAMILY,RECENTLY_SOLD,2023-12-12,64 days,147500.0,614 Paw Paw St,32922,1958,2.0,3.0,1629.0,Square Feet,5662.0,Square Feet,172200.0,28.35152,-80.73507,0.0,14.0,False,0.0,False,False,nan,www.zillow.com/homedetails/614-Paw-Paw-St-Cocoa-FL-32922/43415125_zpid/
249,43467269,SINGLE_FAMILY,RECENTLY_SOLD,2023-12-12,35 days,212500.0,1395 Ashwood Dr,32935,1962,2.0,4.0,1170.0,Square Feet,9147.6,Square Feet,302400.0,28.1378,-80.6428,105.0,1473.0,False,0.0,False,False,Single Family Residence,www.zillow.com/homedetails/1395-Ashwood-Dr-Melbourne-FL-32935/43467269_zpid/
250,43470970,SINGLE_FAMILY,RECENTLY_SOLD,2023-12-12,64 days,165000.0,727 Renner Ave,32935,1963,1.5,3.0,936.0,Square Feet,6534.0,Square Feet,239000.0,28.118685,-80.65705,0.0,13.0,False,0.0,False,False,nan,www.zillow.com/homedetails/727-Renner-Ave-Melbourne-FL-32935/43470970_zpid/
251,43497775,SINGLE_FAMILY,RECENTLY_SOLD,2023-12-12,64 days,120000.0,2737 Elm Dr NE,32905,1966,2.0,3.0,1718.0,Square Feet,12631.999999999998,Square Feet,248300.0,28.018932,-80.588776,0.0,16.0,False,0.0,False,False,nan,www.zillow.com/homedetails/2737-Elm-Dr-NE-Palm-Bay-FL-32905/43497775_zpid/
252,43498744,SINGLE_FAMILY,RECENTLY_SOLD,2023-12-12,64 days,165000.0,761 Aragon Ave NE,32905,1979,2.0,3.0,1407.0,Square Feet,11761.000000000002,Square Feet,263300.0,28.016268,-80.61671,0.0,20.0,False,0.0,False,False,nan,www.zillow.com/homedetails/761-Aragon-Ave-NE-Palm-Bay-FL-32905/43498744_zpid/
253,43514740,SINGLE_FAMILY,RECENTLY_SOLD,2023-12-12,64 days,250000.0,1671 Palatka Rd SE,32909,1985,2.0,2.0,1036.0,Square Feet,10018.8,Square Feet,251800.0,27.957113,-80.62369,0.0,9.0,False,0.0,False,False,Single Family Residence,www.zillow.com/homedetails/1671-Palatka-Rd-SE-Palm-Bay-FL-32909/43514740_zpid/
254,54618922,SINGLE_FAMILY,RECENTLY_SOLD,2023-12-12,64 days,250000.0,1702 Glenwood St NE,32907,1987,2.0,3.0,1376.0,Square Feet,16116.999999999998,Square Feet,301700.0,28.006084,-80.62083,0.0,7.0,False,0.0,False,False,nan,www.zillow.com/homedetails/1702-Glenwood-St-NE-Palm-Bay-FL-32907/54618922_zpid/
255,43374647,SINGLE_FAMILY,RECENTLY_SOLD,2023-12-11,19 days,205000.0,965 Alford St,32796,1964,2.0,3.0,1079.0,Square Feet,6098.4,Square Feet,247400.0,28.628323,-80.85938,31.0,461.0,False,0.0,False,False,Single Family Residence,www.zillow.com/homedetails/965-Alford-St-Titusville-FL-32796/43374647_zpid/
256,43381469,SINGLE_FAMILY,RECENTLY_SOLD,2023-12-11,65 days,229000.0,2520 Dolphin Rd,32780,1959,1.0,3.0,920.0,Square Feet,6969.6,Square Feet,230700.0,28.585407,-80.82936,1.0,14.0,False,0.0,False,False,Single Family Residence,www.zillow.com/homedetails/2520-Dolphin-Rd-Titusville-FL-32780/43381469_zpid/
257,43431889,SINGLE_FAMILY,RECENTLY_SOLD,2023-12-11,65 days,240000.0,1019 Green Rd,32955,1957,2.0,4.0,1425.0,Square Feet,12632.4,Square Feet,241800.0,28.316574,-80.745255,0.0,33.0,False,0.0,False,False,Single Family Residence,www.zillow.com/homedetails/1019-Green-Rd-Rockledge-FL-32955/43431889_zpid/
258,43475941,SINGLE_FAMILY,RECENTLY_SOLD,2023-12-11,65 days,94000.0,616 Wisteria Dr,32901,1956,1.0,3.0,936.0,Square Feet,8276.0,Square Feet,179400.0,28.098305,-80.61915,0.0,22.0,False,0.0,False,False,nan,www.zillow.com/homedetails/616-Wisteria-Dr-Melbourne-FL-32901/43475941_zpid/
259,43487265,SINGLE_FAMILY,RECENTLY_SOLD,2023-12-11,65 days,172500.0,1704 Park Ave,32901,1952,1.0,2.0,800.0,Square Feet,6969.0,Square Feet,173400.0,28.081919,-80.62528,0.0,8.0,False,0.0,False,False,nan,www.zillow.com/homedetails/1704-Park-Ave-Melbourne-FL-32901/43487265_zpid/
260,43491945,SINGLE_FAMILY,RECENTLY_SOLD,2023-12-11,65 days,140000.0,1125 Gainey Dr,32901,1957,3.0,6.0,1632.0,Square Feet,6098.4,Square Feet,141000.0,28.065138,-80.601585,0.0,21.0,False,0.0,False,False,Single Family Residence,www.zillow.com/homedetails/1125-Gainey-Dr-Melbourne-FL-32901/43491945_zpid/
261,43504547,SINGLE_FAMILY,RECENTLY_SOLD,2023-12-11,65 days,160000.0,492 Tewksbury Ln NE,32907,1978,2.0,3.0,1320.0,Square Feet,8276.0,Square Feet,160800.0,28.008753,-80.63423,0.0,8.0,False,0.0,False,False,nan,www.zillow.com/homedetails/492-Tewksbury-Ln-NE-Palm-Bay-FL-32907/43504547_zpid/
262,43402259,SINGLE_FAMILY,RECENTLY_SOLD,2023-12-08,68 days,250000.0,2512 N Palm Dr,32926,1986,2.0,3.0,1040.0,Square Feet,10454.4,Square Feet,251300.0,28.36997,-80.77245,1.0,35.0,False,0.0,False,False,Single Family Residence,www.zillow.com/homedetails/2512-N-Palm-Dr-Cocoa-FL-32926/43402259_zpid/
263,43467468,SINGLE_FAMILY,RECENTLY_SOLD,2023-12-08,68 days,231100.0,1555 Palmwood Dr,32935,1964,2.0,4.0,1378.0,Square Feet,7405.0,Square Feet,286000.0,28.1398,-80.64584,0.0,12.0,False,0.0,False,True,nan,www.zillow.com/homedetails/1555-Palmwood-Dr-Melbourne-FL-32935/43467468_zpid/
264,43472869,SINGLE_FAMILY,RECENTLY_SOLD,2023-12-08,68 days,249500.0,338 Howard Ln,32935,1951,1.0,3.0,1378.0,Square Feet,12196.0,Square Feet,313700.0,28.117008,-80.62292,0.0,14.0,False,0.0,False,False,nan,www.zillow.com/homedetails/338-Howard-Ln-Melbourne-FL-32935/43472869_zpid/
265,43482394,SINGLE_FAMILY,RECENTLY_SOLD,2023-12-08,68 days,240000.0,1010 Jupiter Blvd NW,32907,1986,1.0,3.0,825.0,Square Feet,10018.8,Square Feet,241800.0,28.017662,-80.69712,0.0,17.0,False,0.0,False,False,Single Family Residence,www.zillow.com/homedetails/1010-Jupiter-Blvd-NW-Palm-Bay-FL-32907/43482394_zpid/
266,43486302,SINGLE_FAMILY,RECENTLY_SOLD,2023-12-08,68 days,222000.0,271 Maywood Ave NW,32907,1979,2.0,3.0,1176.0,Square Feet,10018.0,Square Feet,254200.0,28.004679,-80.67966,2.0,11.0,False,0.0,False,False,nan,www.zillow.com/homedetails/271-Maywood-Ave-NW-Palm-Bay-FL-32907/43486302_zpid/
267,43500136,SINGLE_FAMILY,RECENTLY_SOLD,2023-12-08,68 days,200000.0,900 Hunan St NE,32907,1981,2.0,3.0,1578.0,Square Feet,15681.0,Square Feet,200900.0,28.01407,-80.64751,0.0,7.0,False,0.0,False,False,nan,www.zillow.com/homedetails/900-Hunan-St-NE-Palm-Bay-FL-32907/43500136_zpid/
268,43518019,SINGLE_FAMILY,RECENTLY_SOLD,2023-12-08,13 days,180000.0,1067 Pappas Rd SE,32909,1989,2.0,3.0,1136.0,Square Feet,10454.4,Square Feet,262100.0,27.936008,-80.64126,1.0,76.0,False,0.0,False,False,Single Family Residence,www.zillow.com/homedetails/1067-Pappas-Rd-SE-Palm-Bay-FL-32909/43518019_zpid/
269,54602554,SINGLE_FAMILY,RECENTLY_SOLD,2023-12-08,68 days,205000.0,202 Pinedo Dr,32780,1965,1.0,3.0,1040.0,Square Feet,9147.6,Square Feet,206600.0,28.57231,-80.8,0.0,8.0,False,0.0,False,False,Single Family Residence,www.zillow.com/homedetails/202-Pinedo-Dr-Titusville-FL-32780/54602554_zpid/
270,54603839,SINGLE_FAMILY,RECENTLY_SOLD,2023-12-08,68 days,65000.0,6883 Aster Dr,32927,1974,2.0,3.0,1288.0,Square Feet,7405.0,Square Feet,65500.0,28.44216,-80.768425,0.0,15.0,False,0.0,False,False,nan,www.zillow.com/homedetails/6883-Aster-Dr-Cocoa-FL-32927/54603839_zpid/
271,43373518,SINGLE_FAMILY,RECENTLY_SOLD,2023-12-07,69 days,210000.0,1160 Old Dixie Hwy,32796,1957,1.0,3.0,912.0,Square Feet,10018.8,Square Feet,211600.0,28.63166,-80.83245,0.0,12.0,False,0.0,False,False,Single Family Residence,www.zillow.com/homedetails/1160-Old-Dixie-Hwy-Titusville-FL-32796/43373518_zpid/
272,43487456,SINGLE_FAMILY,RECENTLY_SOLD,2023-12-07,69 days,172000.0,745 Bonnie Cir,32901,1952,2.0,2.0,1224.0,Square Feet,12196.799999999996,Square Feet,0.0,28.082752,-80.632065,0.0,36.0,False,0.0,False,False,Single Family Residence,www.zillow.com/homedetails/745-Bonnie-Cir-Melbourne-FL-32901/43487456_zpid/
273,43502837,SINGLE_FAMILY,RECENTLY_SOLD,2023-12-07,69 days,250000.0,210 Esterbrook Ave NE,32907,1981,2.0,4.0,1570.0,Square Feet,10454.4,Square Feet,251900.0,28.00162,-80.64961,0.0,12.0,False,0.0,False,False,Single Family Residence,www.zillow.com/homedetails/210-Esterbrook-Ave-NE-Palm-Bay-FL-32907/43502837_zpid/
274,48188745,SINGLE_FAMILY,RECENTLY_SOLD,2023-12-07,69 days,200000.0,411 Alameda Ave SE,32909,1980,2.0,3.0,1066.0,Square Feet,10018.8,Square Feet,201600.0,27.990593,-80.66219,1.0,25.0,False,0.0,False,False,Single Family Residence,www.zillow.com/homedetails/411-Alameda-Ave-SE-Palm-Bay-FL-32909/48188745_zpid/
275,66682734,SINGLE_FAMILY,RECENTLY_SOLD,2023-12-07,69 days,189000.0,541 Avocado Rd NW,32907,2004,2.0,3.0,1404.0,Square Feet,10454.0,Square Feet,297900.0,28.011686,-80.67881,0.0,5.0,False,0.0,False,False,nan,www.zillow.com/homedetails/541-Avocado-Rd-NW-Palm-Bay-FL-32907/66682734_zpid/
276,43379020,SINGLE_FAMILY,RECENTLY_SOLD,2023-12-06,70 days,200000.0,1535 Country Club Blvd,32780,1986,2.0,3.0,1315.0,Square Feet,9147.6,Square Feet,201600.0,28.590384,-80.81978,2.0,30.0,False,0.0,False,False,Single Family Residence,www.zillow.com/homedetails/1535-Country-Club-Blvd-Titusville-FL-32780/43379020_zpid/
277,43412877,SINGLE_FAMILY,RECENTLY_SOLD,2023-12-06,70 days,129600.0,1042 W Hillcrest Dr,32922,1959,1.0,3.0,984.0,Square Feet,8276.0,Square Feet,148200.0,28.366003,-80.74311,0.0,15.0,False,0.0,False,False,nan,www.zillow.com/homedetails/1042-W-Hillcrest-Dr-Cocoa-FL-32922/43412877_zpid/
278,43496802,SINGLE_FAMILY,RECENTLY_SOLD,2023-12-06,70 days,240000.0,3241 Ideal Ave NE,32905,1960,2.0,3.0,954.0,Square Feet,7405.0,Square Feet,241900.0,28.016706,-80.57549,1.0,13.0,False,0.0,False,False,nan,www.zillow.com/homedetails/3241-Ideal-Ave-NE-Palm-Bay-FL-32905/43496802_zpid/
279,43511741,SINGLE_FAMILY,RECENTLY_SOLD,2023-12-06,70 days,195000.0,3681 Jupiter Blvd SE,32909,1980,2.0,3.0,1272.0,Square Feet,11325.999999999998,Square Feet,203100.0,27.98759,-80.6441,0.0,40.0,False,0.0,False,False,Single Family Residence,www.zillow.com/homedetails/3681-Jupiter-Blvd-SE-Palm-Bay-FL-32909/43511741_zpid/
280,43374641,SINGLE_FAMILY,RECENTLY_SOLD,2023-12-05,71 days,18500.0,940 Allendale St,32796,1964,2.0,3.0,1066.0,Square Feet,6098.4,Square Feet,18600.0,28.628153,-80.85908,0.0,13.0,False,0.0,False,False,Single Family Residence,www.zillow.com/homedetails/940-Allendale-St-Titusville-FL-32796/43374641_zpid/
281,43471591,SINGLE_FAMILY,RECENTLY_SOLD,2023-12-05,71 days,230000.0,1812 Pontiac Cir N,32935,1964,2.0,3.0,1560.0,Square Feet,13068.0,Square Feet,231800.0,28.1209,-80.650276,0.0,11.0,False,0.0,False,False,nan,www.zillow.com/homedetails/1812-Pontiac-Cir-N-Melbourne-FL-32935/43471591_zpid/
282,43491347,SINGLE_FAMILY,RECENTLY_SOLD,2023-12-05,71 days,30900.0,508 Burr St,32901,1950,1.0,3.0,1190.0,Square Feet,3920.0,Square Feet,89600.0,28.069597,-80.61224,0.0,13.0,False,0.0,False,False,nan,www.zillow.com/homedetails/508-Burr-St-Melbourne-FL-32901/43491347_zpid/
283,43497507,SINGLE_FAMILY,RECENTLY_SOLD,2023-12-05,71 days,240000.0,2967 Gemini Ave NE,32905,1971,2.0,2.0,931.0,Square Feet,7405.2,Square Feet,241200.0,28.014694,-80.58191,0.0,14.0,False,0.0,False,False,Single Family Residence,www.zillow.com/homedetails/2967-Gemini-Ave-NE-Palm-Bay-FL-32905/43497507_zpid/
284,43511910,SINGLE_FAMILY,RECENTLY_SOLD,2023-12-05,12 days,145100.0,670 Bluefields St SE,32909,1984,2.0,3.0,1120.0,Square Feet,10890.0,Square Feet,0.0,27.984524,-80.655075,346.0,5082.0,False,0.0,False,False,Single Family Residence,www.zillow.com/homedetails/670-Bluefields-St-SE-Palm-Bay-FL-32909/43511910_zpid/
285,54602040,SINGLE_FAMILY,RECENTLY_SOLD,2023-12-05,71 days,190500.0,19 N De Leon Ave,32796,1954,1.0,2.0,950.0,Square Feet,9147.6,Square Feet,192000.0,28.616192,-80.81442,0.0,27.0,False,0.0,False,False,Single Family Residence,www.zillow.com/homedetails/19-N-De-Leon-Ave-Titusville-FL-32796/54602040_zpid/
286,43384462,SINGLE_FAMILY,RECENTLY_SOLD,2023-12-04,72 days,245000.0,4325 Lauren Ln,32780,1964,2.0,4.0,1368.0,Square Feet,8276.4,Square Feet,246200.0,28.563763,-80.80853,0.0,27.0,False,0.0,False,False,Single Family Residence,www.zillow.com/homedetails/4325-Lauren-Ln-Titusville-FL-32780/43384462_zpid/
287,43475311,SINGLE_FAMILY,RECENTLY_SOLD,2023-12-04,72 days,210000.0,645 Anita Dr,32935,1957,1.0,3.0,1144.0,Square Feet,10018.8,Square Feet,211000.0,28.113398,-80.62857,1.0,12.0,False,0.0,False,False,Single Family Residence,www.zillow.com/homedetails/645-Anita-Dr-Melbourne-FL-32935/43475311_zpid/
288,43488146,SINGLE_FAMILY,RECENTLY_SOLD,2023-12-04,72 days,175000.0,56 NW Shannon Ave,32904,1953,1.0,2.0,783.0,Square Feet,12632.4,Square Feet,225800.0,28.079773,-80.640045,0.0,12.0,False,0.0,False,False,Single Family Residence,www.zillow.com/homedetails/56-NW-Shannon-Ave-West-Melbourne-FL-32904/43488146_zpid/
289,43504049,SINGLE_FAMILY,RECENTLY_SOLD,2023-12-04,72 days,185000.0,1662 Charles Blvd NE,32907,1995,2.0,3.0,1306.0,Square Feet,12196.0,Square Feet,294800.0,28.004177,-80.62357,0.0,9.0,False,0.0,False,False,nan,www.zillow.com/homedetails/1662-Charles-Blvd-NE-Palm-Bay-FL-32907/43504049_zpid/
290,61176292,SINGLE_FAMILY,RECENTLY_SOLD,2023-12-04,72 days,86700.0,296 Barrymore Dr,32955,2003,2.5,4.0,2416.0,Square Feet,8712.0,Square Feet,496900.0,28.300055,-80.710815,0.0,16.0,False,0.0,False,False,nan,www.zillow.com/homedetails/296-Barrymore-Dr-Rockledge-FL-32955/61176292_zpid/
291,43385389,SINGLE_FAMILY,PENDING,2023-12-01,44 days,279900.0,870 Cynthia Dr,32780,1979,2.0,3.0,1326.0,Square Feet,7840.8,Square Feet,278900.0,28.543705,-80.81161,1.0,113.0,False,0.0,False,False,Single Family Residence,www.zillow.com/homedetails/870-Cynthia-Dr-Titusville-FL-32780/43385389_zpid/
292,43401701,SINGLE_FAMILY,RECENTLY_SOLD,2023-12-01,75 days,140000.0,6713 Bear Trl,32926,1998,2.0,2.0,924.0,Square Feet,43560.0,Square Feet,140800.0,28.380367,-80.84259,0.0,11.0,False,0.0,False,False,nan,www.zillow.com/homedetails/6713-Bear-Trl-Cocoa-FL-32926/43401701_zpid/
293,43402198,SINGLE_FAMILY,RECENTLY_SOLD,2023-12-01,75 days,170700.0,3855 Fenner Rd,32926,1973,2.0,3.0,1593.0,Square Feet,104544.0,Square Feet,171600.0,28.366817,-80.78028,0.0,9.0,False,0.0,False,False,nan,www.zillow.com/homedetails/3855-Fenner-Rd-Cocoa-FL-32926/43402198_zpid/
294,43409359,SINGLE_FAMILY,RECENTLY_SOLD,2023-12-01,7 days,165000.0,1165 Delmonte St,32953,1965,2.0,4.0,1234.0,Square Feet,7840.8,Square Feet,329300.0,28.377298,-80.7068,20.0,606.0,False,0.0,False,False,Single Family Residence,www.zillow.com/homedetails/1165-Delmonte-St-Merritt-Island-FL-32953/43409359_zpid/
295,43414119,SINGLE_FAMILY,RECENTLY_SOLD,2023-12-01,75 days,185000.0,1337 S Stetson Dr,32922,1963,2.0,3.0,1188.0,Square Feet,8712.0,Square Feet,186000.0,28.373514,-80.7652,0.0,6.0,False,0.0,False,False,nan,www.zillow.com/homedetails/1337-S-Stetson-Dr-Cocoa-FL-32922/43414119_zpid/
296,43428230,SINGLE_FAMILY,RECENTLY_SOLD,2023-12-01,75 days,100000.0,985 Beacon Rd,32955,1964,2.0,4.0,1310.0,Square Feet,8276.0,Square Feet,100600.0,28.318436,-80.74087,0.0,11.0,False,0.0,False,False,nan,www.zillow.com/homedetails/985-Beacon-Rd-Rockledge-FL-32955/43428230_zpid/
297,43497904,SINGLE_FAMILY,RECENTLY_SOLD,2023-12-01,75 days,155000.0,1188 Glenham Dr NE,32905,1958,1.0,3.0,1148.0,Square Feet,10018.8,Square Feet,156100.0,28.026901,-80.59346,1.0,17.0,False,0.0,False,False,Single Family Residence,www.zillow.com/homedetails/1188-Glenham-Dr-NE-Palm-Bay-FL-32905/43497904_zpid/
298,43380349,SINGLE_FAMILY,RECENTLY_SOLD,2023-11-30,76 days,163350.0,137 Court St,32780,1959,1.0,2.0,572.0,Square Feet,5227.2,Square Feet,164400.0,28.578629,-80.80156,0.0,17.0,False,0.0,False,False,Single Family Residence,www.zillow.com/homedetails/137-Court-St-Titusville-FL-32780/43380349_zpid/
299,43380434,SINGLE_FAMILY,RECENTLY_SOLD,2023-11-30,76 days,125000.0,272 Pinedo Dr,32780,1960,2.0,3.0,952.0,Square Feet,9147.0,Square Feet,125700.0,28.572325,-80.802795,0.0,2.0,False,0.0,False,False,nan,www.zillow.com/homedetails/272-Pinedo-Dr-Titusville-FL-32780/43380434_zpid/
300,43385254,SINGLE_FAMILY,RECENTLY_SOLD,2023-11-30,76 days,245000.0,940 Cristobal Dr,32780,1966,2.0,3.0,1129.0,Square Feet,7405.2,Square Feet,246300.0,28.548021,-80.81288,1.0,18.0,False,0.0,False,False,Single Family Residence,www.zillow.com/homedetails/940-Cristobal-Dr-Titusville-FL-32780/43385254_zpid/
301,43388302,SINGLE_FAMILY,RECENTLY_SOLD,2023-11-30,76 days,210102.0,298 Chase Rd,32927,1984,2.0,2.0,1582.0,Square Feet,7405.2,Square Feet,282100.0,28.485891,-80.77605,0.0,9.0,False,0.0,False,False,Single Family Residence,www.zillow.com/homedetails/298-Chase-Rd-Cocoa-FL-32927/43388302_zpid/
302,43388929,SINGLE_FAMILY,RECENTLY_SOLD,2023-11-30,76 days,245000.0,6730 Song Dr,32927,1980,2.0,3.0,1092.0,Square Feet,10454.4,Square Feet,246300.0,28.476921,-80.78491,1.0,12.0,False,0.0,False,False,Single Family Residence,www.zillow.com/homedetails/6730-Song-Dr-Cocoa-FL-32927/43388929_zpid/
303,43390751,SINGLE_FAMILY,RECENTLY_SOLD,2023-11-30,77 days,225000.0,5600 Friendly St,32927,1991,2.0,3.0,1756.0,Square Feet,10018.8,Square Feet,334500.0,28.486055,-80.815994,12.0,234.0,False,0.0,False,False,Single Family Residence,www.zillow.com/homedetails/5600-Friendly-St-Cocoa-FL-32927/43390751_zpid/
304,43399899,SINGLE_FAMILY,RECENTLY_SOLD,2023-11-30,76 days,175000.0,5220 Mango Ave,32926,1982,2.0,3.0,1200.0,Square Feet,43560.0,Square Feet,176200.0,28.407007,-80.831406,0.0,23.0,False,0.0,False,False,Single Family Residence,www.zillow.com/homedetails/5220-Mango-Ave-Cocoa-FL-32926/43399899_zpid/
305,43411416,SINGLE_FAMILY,RECENTLY_SOLD,2023-11-30,76 days,240000.0,410 4th St,32953,1959,1.0,4.0,2006.0,Square Feet,7405.2,Square Feet,264000.0,28.362564,-80.69474,0.0,10.0,False,0.0,False,False,Single Family Residence,www.zillow.com/homedetails/410-4th-St-Merritt-Island-FL-32953/43411416_zpid/
306,43472737,SINGLE_FAMILY,RECENTLY_SOLD,2023-11-30,76 days,120300.0,539 Poinciana Ct,32935,1951,1.0,3.0,982.0,Square Feet,10890.0,Square Feet,213000.0,28.115967,-80.62485,0.0,15.0,False,0.0,False,False,nan,www.zillow.com/homedetails/539-Poinciana-Ct-Melbourne-FL-32935/43472737_zpid/
307,43475128,SINGLE_FAMILY,RECENTLY_SOLD,2023-11-30,76 days,175000.0,103 E Avenue D,32901,1964,2.0,3.0,1650.0,Square Feet,11324.999999999998,Square Feet,275900.0,28.103249,-80.61932,0.0,7.0,False,0.0,False,False,nan,www.zillow.com/homedetails/103-E-Avenue-D-Melbourne-FL-32901/43475128_zpid/
308,43475220,SINGLE_FAMILY,RECENTLY_SOLD,2023-11-30,76 days,250000.0,533 Alice Dr,32935,1956,2.0,3.0,936.0,Square Feet,10018.0,Square Feet,251400.0,28.113468,-80.6265,0.0,2.0,False,0.0,False,False,nan,www.zillow.com/homedetails/533-Alice-Dr-Melbourne-FL-32935/43475220_zpid/
309,43482278,SINGLE_FAMILY,RECENTLY_SOLD,2023-11-30,76 days,180000.0,1117 Pace Dr NW,32907,1987,2.0,3.0,1463.0,Square Feet,10018.0,Square Feet,299200.0,28.017237,-80.703026,0.0,15.0,False,0.0,False,False,nan,www.zillow.com/homedetails/1117-Pace-Dr-NW-Palm-Bay-FL-32907/43482278_zpid/
310,54602086,SINGLE_FAMILY,RECENTLY_SOLD,2023-11-30,76 days,120000.0,1015 2nd Ave,32780,1963,2.0,4.0,1195.0,Square Feet,5227.0,Square Feet,121000.0,28.604647,-80.81129,1.0,27.0,False,0.0,False,False,Single Family Residence,www.zillow.com/homedetails/1015-2nd-Ave-Titusville-FL-32780/54602086_zpid/
311,54611778,SINGLE_FAMILY,RECENTLY_SOLD,2023-11-30,76 days,195000.0,1781 Freedom Dr,32940,1989,2.0,3.0,1157.0,Square Feet,7405.2,Square Feet,196200.0,28.253607,-80.716385,0.0,25.0,False,0.0,False,True,Single Family Residence,www.zillow.com/homedetails/1781-Freedom-Dr-Melbourne-FL-32940/54611778_zpid/
312,104129613,SINGLE_FAMILY,RECENTLY_SOLD,2023-11-30,76 days,30700.0,640 Sauders Rd SE,32909,2023,2.0,3.0,1270.0,Square Feet,10890.0,Square Feet,308700.0,27.96189,-80.6583,0.0,6.0,False,0.0,False,False,Single Family Residence,www.zillow.com/homedetails/640-Sauders-Rd-SE-Palm-Bay-FL-32909/104129613_zpid/
313,43375317,SINGLE_FAMILY,RECENTLY_SOLD,2023-11-29,77 days,245000.0,2905 Jasmine St,32796,1965,2.0,3.0,1560.0,Square Feet,8712.0,Square Feet,246500.0,28.624182,-80.84065,0.0,21.0,False,0.0,False,False,Single Family Residence,www.zillow.com/homedetails/2905-Jasmine-St-Titusville-FL-32796/43375317_zpid/
314,43375566,SINGLE_FAMILY,RECENTLY_SOLD,2023-11-29,77 days,170000.0,3368 Elder St,32796,1961,2.0,3.0,1478.0,Square Feet,8276.4,Square Feet,185300.0,28.620537,-80.84702,0.0,9.0,False,0.0,False,False,Single Family Residence,www.zillow.com/homedetails/3368-Elder-St-Titusville-FL-32796/43375566_zpid/
315,43384570,SINGLE_FAMILY,PENDING,2023-11-29,22 days,299900.0,218 Acorn Dr,32780,1920,1.0,3.0,1150.0,Square Feet,7405.2,Square Feet,294900.0,28.56041,-80.800186,27.0,2158.0,False,0.0,False,False,Single Family Residence,www.zillow.com/homedetails/218-Acorn-Dr-Titusville-FL-32780/43384570_zpid/
316,43395305,SINGLE_FAMILY,RECENTLY_SOLD,2023-11-29,77 days,219000.0,4155 Delespine Rd,32927,1980,2.0,3.0,1344.0,Square Feet,11761.2,Square Feet,229500.0,28.476067,-80.787,0.0,20.0,False,0.0,False,False,Single Family Residence,www.zillow.com/homedetails/4155-Delespine-Rd-Cocoa-FL-32927/43395305_zpid/
317,43477775,SINGLE_FAMILY,RECENTLY_SOLD,2023-11-29,77 days,52000.0,26 Annette Dr,32904,1974,2.0,3.0,1392.0,Square Feet,10890.0,Square Feet,52300.0,28.082085,-80.69199,0.0,9.0,False,0.0,False,False,nan,www.zillow.com/homedetails/26-Annette-Dr-Melbourne-FL-32904/43477775_zpid/
318,43497717,SINGLE_FAMILY,RECENTLY_SOLD,2023-11-29,77 days,155000.0,2971 Redgrove Dr NE,32905,1967,1.0,2.0,1346.0,Square Feet,9147.0,Square Feet,192400.0,28.022243,-80.58167,0.0,21.0,False,0.0,False,False,nan,www.zillow.com/homedetails/2971-Redgrove-Dr-NE-Palm-Bay-FL-32905/43497717_zpid/
319,43373064,SINGLE_FAMILY,RECENTLY_SOLD,2023-11-28,78 days,245000.0,1740 Cowan Cir,32796,1966,2.0,3.0,1184.0,Square Feet,9583.2,Square Feet,246700.0,28.644056,-80.84254,0.0,5.0,False,0.0,False,False,Single Family Residence,www.zillow.com/homedetails/1740-Cowan-Cir-Titusville-FL-32796/43373064_zpid/
320,43393601,SINGLE_FAMILY,RECENTLY_SOLD,2023-11-28,78 days,225000.0,6570 Fuller Ave,32927,1992,2.0,3.0,1282.0,Square Feet,10018.0,Square Feet,226600.0,28.473757,-80.81864,0.0,11.0,False,0.0,False,False,nan,www.zillow.com/homedetails/6570-Fuller-Ave-Cocoa-FL-32927/43393601_zpid/
321,43414329,SINGLE_FAMILY,RECENTLY_SOLD,2023-11-28,78 days,172000.0,1139 Grove Ave,32922,1960,1.0,3.0,850.0,Square Feet,6534.0,Square Feet,172900.0,28.35916,-80.74636,0.0,11.0,False,0.0,False,False,Single Family Residence,www.zillow.com/homedetails/1139-Grove-Ave-Cocoa-FL-32922/43414329_zpid/
322,43462288,SINGLE_FAMILY,RECENTLY_SOLD,2023-11-28,78 days,238000.0,1685 Cardinal Ct,32935,1985,2.0,2.0,1003.0,Square Feet,3920.4,Square Feet,239700.0,28.156816,-80.64909,0.0,17.0,False,57.0,False,False,Single Family Residence,www.zillow.com/homedetails/1685-Cardinal-Ct-Melbourne-FL-32935/43462288_zpid/
323,43463272,SINGLE_FAMILY,RECENTLY_SOLD,2023-11-28,78 days,237500.0,1816 Clover Cir,32935,1989,2.0,3.0,1518.0,Square Feet,6098.4,Square Feet,239200.0,28.146784,-80.64335,0.0,20.0,False,0.0,False,False,Single Family Residence,www.zillow.com/homedetails/1816-Clover-Cir-Melbourne-FL-32935/43463272_zpid/
324,43407124,SINGLE_FAMILY,RECENTLY_SOLD,2023-11-27,79 days,215000.0,2510 Cherbourg Rd,32926,1957,2.0,2.0,1116.0,Square Feet,11761.2,Square Feet,216500.0,28.391562,-80.75635,1.0,21.0,False,0.0,False,False,Single Family Residence,www.zillow.com/homedetails/2510-Cherbourg-Rd-Cocoa-FL-32926/43407124_zpid/
325,43427631,SINGLE_FAMILY,RECENTLY_SOLD,2023-11-27,79 days,235000.0,1006 Regalia Dr,32955,1963,1.0,3.0,996.0,Square Feet,7405.2,Square Feet,0.0,28.32653,-80.74365,0.0,11.0,False,0.0,False,False,Single Family Residence,www.zillow.com/homedetails/1006-Regalia-Dr-Rockledge-FL-32955/43427631_zpid/
326,43408663,SINGLE_FAMILY,RECENTLY_SOLD,2023-11-24,15 days,170000.0,902 Kensington Dr,32922,1956,2.0,3.0,1200.0,Square Feet,12196.999999999998,Square Feet,255300.0,28.376553,-80.74178,46.0,550.0,False,0.0,False,False,Single Family Residence,www.zillow.com/homedetails/902-Kensington-Dr-Cocoa-FL-32922/43408663_zpid/
327,52437353,SINGLE_FAMILY,RECENTLY_SOLD,2023-11-24,82 days,220000.0,439 Earl Ave,32901,1978,2.0,3.0,1334.0,Square Feet,6534.0,Square Feet,246700.0,28.046595,-80.61243,0.0,17.0,False,0.0,False,False,Single Family Residence,www.zillow.com/homedetails/439-Earl-Ave-Melbourne-FL-32901/52437353_zpid/
328,43378501,SINGLE_FAMILY,RECENTLY_SOLD,2023-11-22,84 days,240000.0,1724 Craig Ave,32780,1959,2.0,3.0,1320.0,Square Feet,11325.6,Square Feet,241800.0,28.59437,-80.8155,1.0,39.0,False,0.0,False,False,Single Family Residence,www.zillow.com/homedetails/1724-Craig-Ave-Titusville-FL-32780/43378501_zpid/
329,43393163,SINGLE_FAMILY,RECENTLY_SOLD,2023-11-22,84 days,128000.0,6440 Irving Rd,32927,1984,2.0,3.0,1315.0,Square Feet,10018.0,Square Feet,276700.0,28.47152,-80.81564,0.0,9.0,False,0.0,False,False,nan,www.zillow.com/homedetails/6440-Irving-Rd-Cocoa-FL-32927/43393163_zpid/
330,43411960,SINGLE_FAMILY,RECENTLY_SOLD,2023-11-22,84 days,220000.0,975 N Tropical Trl,32953,1951,2.0,3.0,1608.0,Square Feet,15245.999999999998,Square Feet,221400.0,28.373817,-80.71073,0.0,9.0,False,0.0,False,False,Single Family Residence,www.zillow.com/homedetails/975-N-Tropical-Trl-Merritt-Island-FL-32953/43411960_zpid/
331,43428224,SINGLE_FAMILY,RECENTLY_SOLD,2023-11-22,84 days,213000.0,986 Kings Post Rd,32955,1964,2.0,4.0,1310.0,Square Feet,9147.0,Square Feet,300000.0,28.318163,-80.74085,0.0,10.0,False,0.0,False,False,nan,www.zillow.com/homedetails/986-Kings-Post-Rd-Rockledge-FL-32955/43428224_zpid/
332,43492161,SINGLE_FAMILY,RECENTLY_SOLD,2023-11-22,84 days,204000.0,2524 Spence Dr NE,32905,1952,1.0,2.0,1054.0,Square Feet,9583.2,Square Feet,205200.0,28.059917,-80.59507,0.0,8.0,False,0.0,False,False,Single Family Residence,www.zillow.com/homedetails/2524-Spence-Dr-NE-Palm-Bay-FL-32905/43492161_zpid/
333,43505266,SINGLE_FAMILY,RECENTLY_SOLD,2023-11-22,84 days,170000.0,306 Harvey Ave NE,32907,1979,2.0,3.0,1567.0,Square Feet,10018.8,Square Feet,171100.0,28.003893,-80.617645,2.0,32.0,False,0.0,False,False,Single Family Residence,www.zillow.com/homedetails/306-Harvey-Ave-NE-Palm-Bay-FL-32907/43505266_zpid/
