,zpid,homeType,homeStatus,dateSoldString,daysOnZillow,priceOutlier,price,streetAddress,zipcode,yearBuilt,bathrooms,bedrooms,livingAreaValue,livingAreaUnits,lotAreaValue,lotAreaUnits,zestimate,latitude,longitude,favoriteCount,pageViewCount,newConstructionType,resoFacts.associationFee,listingSubType.isForeclosure,resoFacts.isSeniorCommunity,resoFacts.propertySubType,hdpUrl,taxAssessedValue,cityId,rentZestimate,restimateHighPercent,restimateLowPercent,mortgageRates.thirtyYearFixedRate,mortgageRates.fifteenYearFixedRate,mortgageRates.arm5Rate,resoFacts.garageSpaces,resoFacts.hasAdditionalParcels,resoFacts.hasAssociation,resoFacts.hasAttachedGarage,resoFacts.hasAttachedProperty,resoFacts.hasGarage,resoFacts.hasPrivatePool,resoFacts.hasSpa,resoFacts.hasView,resoFacts.hasWaterfrontView,resoFacts.taxAnnualAmount,resoFacts.waterViewYN,price/sqft,schoolMaxRating,schoolMinDistance
0,52422891,SINGLE_FAMILY,RECENTLY_SOLD,2024-02-15,1,0,235000.0,1475 Leeward Ave SE,32909,1983,1.0,2.0,832.0,Square Feet,10018.8,Square Feet,232000.0,27.960289,-80.631096,1.0,92.0,False,0.0,False,False,Single Family Residence,www.zillow.com/homedetails/1475-Leeward-Ave-SE-Palm-Bay-FL-32909/52422891_zpid/,156440.0,53787.0,1425.0,12.0,5.0,6.068,5.904,5.783,1.0,True,False,False,False,True,False,False,False,False,87.0,False,282.4519230769231,4.0,0.6
1,2070477473,SINGLE_FAMILY,RECENTLY_SOLD,2024-02-15,1,0,85000.0,145 Ruth Ave,32922,1964,1.0,2.0,1140.0,Square Feet,10454.4,Square Feet,117400.0,28.353632,-80.750404,41.0,749.0,False,0.0,False,False,Single Family Residence,www.zillow.com/homedetails/145-Ruth-Ave-Cocoa-FL-32922/2070477473_zpid/,278225.0,10889.0,1650.0,21.0,12.0,5.99,5.958,6.562,0.0,True,False,False,False,False,False,False,False,False,3447.0,False,74.56140350877193,3.0,0.9
2,43513667,SINGLE_FAMILY,RECENTLY_SOLD,2024-02-14,1,0,245000.0,1299 Tacoma St SE,32909,1984,2.0,3.0,1094.0,Square Feet,11761.2,Square Feet,238700.0,27.976576,-80.6349,84.0,1308.0,False,0.0,False,False,Single Family Residence,www.zillow.com/homedetails/1299-Tacoma-St-SE-Palm-Bay-FL-32909/43513667_zpid/,167210.0,53787.0,1925.0,5.0,6.0,6.068,5.904,5.783,0.0,True,True,False,False,False,False,False,False,False,2548.0,False,223.9488117001828,4.0,0.6
3,43408312,SINGLE_FAMILY,RECENTLY_SOLD,2024-02-13,1,0,126000.0,1432 Mac Arthur Ln,32922,1957,1.0,3.0,768.0,Square Feet,13503.6,Square Feet,126000.0,28.381496,-80.75252,3.0,183.0,False,0.0,False,False,Single Family Residence,www.zillow.com/homedetails/1432-Mac-Arthur-Ln-Cocoa-FL-32922/43408312_zpid/,48780.0,10889.0,1200.0,17.0,5.0,6.068,5.904,5.783,0.0,True,False,False,False,False,False,False,True,False,877.0,False,164.0625,4.0,0.8
4,2068968809,SINGLE_FAMILY,RECENTLY_SOLD,2024-02-13,1,0,165000.0,882 Carnival Rd SE #12,32909,1985,2.0,3.0,966.0,Square Feet,10018.8,Square Feet,216600.0,27.978214,-80.65889,19.0,363.0,False,0.0,False,False,Single Family Residence,www.zillow.com/homedetails/882-Carnival-Rd-SE-12-Palm-Bay-FL-32909/2068968809_zpid/,278225.0,53787.0,1599.0,13.0,6.0,6.068,5.904,5.783,1.0,True,False,False,False,True,False,False,True,False,0.0,False,170.80745341614906,4.0,0.7
5,43412045,SINGLE_FAMILY,RECENTLY_SOLD,2024-02-12,296,0,236925.0,118 Cocoa Pl,32922,1952,1.0,3.0,1235.0,Square Feet,7405.2,Square Feet,240600.0,28.369532,-80.736176,0.0,50.0,False,0.0,False,False,Single Family Residence,www.zillow.com/homedetails/118-Cocoa-Pl-Cocoa-FL-32922/43412045_zpid/,155460.0,10889.0,1925.0,14.0,12.0,6.068,5.904,5.783,0.0,True,False,False,False,False,False,False,False,False,2205.0,False,191.8421052631579,4.0,2.0
6,43482665,SINGLE_FAMILY,RECENTLY_SOLD,2024-02-12,2,0,245000.0,909 Essen Ave NW,32907,1985,2.0,3.0,1627.0,Square Feet,12632.4,Square Feet,267400.0,28.021555,-80.69194,2.0,76.0,False,0.0,False,False,Single Family Residence,www.zillow.com/homedetails/909-Essen-Ave-NW-Palm-Bay-FL-32907/43482665_zpid/,242280.0,53787.0,1870.0,15.0,6.0,6.068,5.904,5.783,2.0,True,False,False,False,True,False,True,False,False,590.0,False,150.5838967424708,3.0,3.1
7,43515871,SINGLE_FAMILY,RECENTLY_SOLD,2024-02-12,2,0,230000.0,321 Albright St SE,32909,1988,2.0,3.0,1526.0,Square Feet,10454.4,Square Feet,230000.0,27.96949,-80.66416,45.0,833.0,False,0.0,False,False,Single Family Residence,www.zillow.com/homedetails/321-Albright-St-SE-Palm-Bay-FL-32909/43515871_zpid/,232530.0,53787.0,1944.0,5.0,7.0,6.068,5.904,5.783,2.0,True,False,False,False,True,False,False,True,False,691.0,True,150.7208387942333,4.0,1.5
8,43400335,SINGLE_FAMILY,RECENTLY_SOLD,2024-02-09,5,0,250000.0,3023 Sandgate Ct,32926,1968,1.0,3.0,988.0,Square Feet,9147.6,Square Feet,250000.0,28.397217,-80.77416,0.0,39.0,False,0.0,False,False,Single Family Residence,www.zillow.com/homedetails/3023-Sandgate-Ct-Cocoa-FL-32926/43400335_zpid/,192220.0,10889.0,1681.0,9.0,6.0,6.068,5.904,5.783,0.0,True,False,False,False,False,False,False,False,False,2414.0,False,253.03643724696357,3.0,1.9
9,43467371,SINGLE_FAMILY,RECENTLY_SOLD,2024-02-09,5,0,147000.0,1315 Pinewood Dr,32935,1958,1.0,3.0,888.0,Square Feet,7405.2,Square Feet,147000.0,28.13536,-80.64135,0.0,76.0,False,0.0,False,False,Single Family Residence,www.zillow.com/homedetails/1315-Pinewood-Dr-Melbourne-FL-32935/43467371_zpid/,140440.0,19307.0,1749.0,9.0,9.0,6.068,5.904,5.783,0.0,True,False,False,False,False,False,False,False,False,1617.0,False,165.54054054054055,4.0,0.5
10,43497564,SINGLE_FAMILY,RECENTLY_SOLD,2024-02-09,5,0,210000.0,741 Atlanta Ave NE,32905,1968,2.0,3.0,1439.0,Square Feet,8712.0,Square Feet,210000.0,28.01491,-80.5859,50.0,654.0,False,0.0,False,False,Single Family Residence,www.zillow.com/homedetails/741-Atlanta-Ave-NE-Palm-Bay-FL-32905/43497564_zpid/,217370.0,53787.0,1800.0,6.0,6.0,6.068,5.904,5.783,1.0,True,False,False,False,True,True,False,False,False,1787.0,False,145.9346768589298,3.0,3.0
11,43510026,SINGLE_FAMILY,RECENTLY_SOLD,2024-02-09,5,0,250000.0,795 Harper Blvd SW,32908,1988,2.0,3.0,1344.0,Square Feet,11761.2,Square Feet,250000.0,27.98087,-80.692726,1.0,70.0,False,0.0,False,False,Single Family Residence,www.zillow.com/homedetails/795-Harper-Blvd-SW-Palm-Bay-FL-32908/43510026_zpid/,194960.0,53787.0,1855.0,5.0,5.0,6.068,5.904,5.783,1.0,True,False,False,False,True,False,False,False,False,645.0,False,186.01190476190476,6.0,0.5
12,52273974,SINGLE_FAMILY,RECENTLY_SOLD,2024-02-09,5,0,225000.0,1015 Montclair Rd,32922,1961,1.0,3.0,1084.0,Square Feet,8712.0,Square Feet,217600.0,28.370848,-80.75069,10.0,215.0,False,0.0,False,False,Single Family Residence,www.zillow.com/homedetails/1015-Montclair-Rd-Cocoa-FL-32922/52273974_zpid/,119740.0,10889.0,1761.0,5.0,8.0,6.068,5.904,5.783,0.0,False,False,False,False,False,False,False,False,False,1561.0,False,207.56457564575646,2.0,1.2
13,43407117,SINGLE_FAMILY,RECENTLY_SOLD,2024-02-08,6,0,210000.0,2443 Clearlake Rd,32922,1957,1.0,3.0,1124.0,Square Feet,12196.799999999996,Square Feet,210100.0,28.39143,-80.75539,17.0,366.0,False,0.0,False,False,Single Family Residence,www.zillow.com/homedetails/2443-Clearlake-Rd-Cocoa-FL-32922/43407117_zpid/,113900.0,10889.0,1749.0,6.0,6.0,6.068,5.904,5.783,0.0,True,False,False,False,False,False,False,True,False,1477.0,False,186.83274021352312,4.0,0.9
14,43514322,SINGLE_FAMILY,RECENTLY_SOLD,2024-02-08,6,0,245000.0,1463 Leeward Ave SE,32909,1983,1.0,2.0,1098.0,Square Feet,10018.8,Square Feet,250600.0,27.960478,-80.63123,0.0,76.0,False,0.0,False,False,Single Family Residence,www.zillow.com/homedetails/1463-Leeward-Ave-SE-Palm-Bay-FL-32909/43514322_zpid/,140130.0,53787.0,1734.0,13.0,15.0,6.068,5.904,5.783,1.0,True,False,False,False,True,False,False,False,False,587.0,False,223.13296903460838,4.0,0.6
15,52397458,SINGLE_FAMILY,RECENTLY_SOLD,2024-02-08,6,0,250000.0,2089 Redwood Cir NE,32905,2001,2.0,3.0,1292.0,Square Feet,0.0,Square Feet,250100.0,28.021122,-80.60832,5.0,292.0,False,150.0,False,False,Single Family Residence,www.zillow.com/homedetails/2089-Redwood-Cir-NE-Palm-Bay-FL-32905/52397458_zpid/,248050.0,53787.0,1933.0,15.0,11.0,6.068,5.904,5.783,2.0,False,True,True,True,True,False,False,True,False,3013.0,False,193.4984520123839,3.0,2.0
16,43378964,SINGLE_FAMILY,RECENTLY_SOLD,2024-02-07,7,0,220000.0,2000 White Sands Dr,32780,1965,2.0,4.0,1635.0,Square Feet,9147.6,Square Feet,220000.0,28.591688,-80.818275,27.0,750.0,False,0.0,False,False,Single Family Residence,www.zillow.com/homedetails/2000-White-Sands-Dr-Titusville-FL-32780/43378964_zpid/,180910.0,7433.0,2100.0,5.0,7.0,6.068,5.904,5.783,2.0,True,False,False,False,True,False,False,False,False,628.0,False,134.5565749235474,4.0,1.6
17,43491371,SINGLE_FAMILY,RECENTLY_SOLD,2024-02-07,358,0,181000.0,506 Walker St,32901,1964,2.0,3.0,1789.0,Square Feet,16116.999999999998,Square Feet,181000.0,28.065094,-80.6124,2.0,202.0,False,0.0,True,False,Single Family Residence,www.zillow.com/homedetails/506-Walker-St-Melbourne-FL-32901/43491371_zpid/,121020.0,19307.0,2494.0,23.0,19.0,6.068,5.904,5.783,2.0,False,False,True,False,True,False,False,False,False,1878.0,False,101.17384013415315,5.0,0.6
18,43483197,SINGLE_FAMILY,RECENTLY_SOLD,2024-02-06,8,0,249000.0,1066 Heath Ave NW,32907,1984,2.0,3.0,1324.0,Square Feet,10454.4,Square Feet,249100.0,28.025282,-80.70967,6.0,130.0,False,0.0,False,False,Single Family Residence,www.zillow.com/homedetails/1066-Heath-Ave-NW-Palm-Bay-FL-32907/43483197_zpid/,232830.0,53787.0,1900.0,5.0,5.0,6.068,5.904,5.783,2.0,True,False,False,False,True,False,False,False,False,4146.0,False,188.06646525679758,5.0,0.6
19,52640731,SINGLE_FAMILY,RECENTLY_SOLD,2024-02-06,8,0,184000.0,2809 Hessey Ave NE,32905,1956,3.0,3.0,1715.0,Square Feet,36154.8,Square Feet,184000.0,28.036295,-80.588135,6.0,277.0,False,0.0,False,False,Single Family Residence,www.zillow.com/homedetails/2809-Hessey-Ave-NE-Palm-Bay-FL-32905/52640731_zpid/,163470.0,53787.0,2723.0,17.0,35.0,6.068,5.904,5.783,1.0,True,False,False,False,True,False,False,False,False,2527.0,False,107.28862973760933,3.0,2.0
20,43390880,SINGLE_FAMILY,RECENTLY_SOLD,2024-02-05,9,0,225000.0,7175 Kaylor Ave,32927,1988,2.0,3.0,1210.0,Square Feet,10454.4,Square Feet,225000.0,28.484196,-80.811966,5.0,218.0,False,0.0,False,False,Single Family Residence,www.zillow.com/homedetails/7175-Kaylor-Ave-Cocoa-FL-32927/43390880_zpid/,214210.0,10889.0,1962.0,10.0,7.0,6.068,5.904,5.783,2.0,True,False,False,False,True,False,False,True,False,850.0,False,185.9504132231405,8.0,0.9
21,43430872,SINGLE_FAMILY,RECENTLY_SOLD,2024-02-05,9,0,250000.0,961 Bartlett Ln,32955,1966,2.0,3.0,1295.0,Square Feet,8712.0,Square Feet,250200.0,28.313778,-80.73519,0.0,85.0,False,0.0,False,False,Single Family Residence,www.zillow.com/homedetails/961-Bartlett-Ln-Rockledge-FL-32955/43430872_zpid/,201890.0,13560.0,2078.0,9.0,7.0,6.068,5.904,5.783,1.0,True,False,False,False,True,False,False,False,False,1733.0,False,193.05019305019306,4.0,0.6
22,43467534,SINGLE_FAMILY,RECENTLY_SOLD,2024-02-05,9,0,132400.0,2138 Cherrywood Dr,32935,1980,2.0,3.0,1347.0,Square Feet,7840.0,Square Feet,287300.0,28.141949,-80.642586,0.0,7.0,False,0.0,False,False,nan,www.zillow.com/homedetails/2138-Cherrywood-Dr-Melbourne-FL-32935/43467534_zpid/,236340.0,19307.0,2057.0,8.0,8.0,6.068,5.904,5.783,0.0,False,False,False,False,False,False,False,False,False,2139.0,False,98.29250185597624,4.0,0.7
23,43476062,SINGLE_FAMILY,RECENTLY_SOLD,2024-02-05,9,0,120000.0,904 Wisteria Dr,32901,1956,1.5,3.0,1100.0,Square Feet,8276.0,Square Feet,203800.0,28.09406,-80.61498,0.0,0.0,False,0.0,False,False,nan,www.zillow.com/homedetails/904-Wisteria-Dr-Melbourne-FL-32901/43476062_zpid/,145000.0,19307.0,1800.0,17.0,8.0,5.99,5.958,6.562,0.0,False,False,False,False,False,False,False,False,False,421.0,False,109.0909090909091,5.0,0.4
24,54620408,SINGLE_FAMILY,RECENTLY_SOLD,2024-02-05,9,0,248000.0,3112 Troon Ave SE,32909,1987,2.0,3.0,1432.0,Square Feet,12632.4,Square Feet,248000.0,27.916533,-80.64792,1.0,98.0,False,0.0,False,False,Single Family Residence,www.zillow.com/homedetails/3112-Troon-Ave-SE-Palm-Bay-FL-32909/54620408_zpid/,199710.0,53787.0,1949.0,13.0,8.0,6.068,5.904,5.783,2.0,True,False,False,False,True,False,False,False,False,652.0,False,173.18435754189943,6.0,1.5
25,43375447,SINGLE_FAMILY,RECENTLY_SOLD,2024-02-02,12,0,183500.0,2937 Cooper Dr,32796,1965,2.0,3.0,1266.0,Square Feet,7405.2,Square Feet,183600.0,28.62809,-80.8416,19.0,380.0,False,0.0,True,False,Single Family Residence,www.zillow.com/homedetails/2937-Cooper-Dr-Titusville-FL-32796/43375447_zpid/,162450.0,7433.0,1795.0,6.0,6.0,6.068,5.904,5.783,1.0,True,False,False,False,True,False,False,False,False,2531.0,False,144.94470774091627,3.0,0.7
26,43402394,SINGLE_FAMILY,RECENTLY_SOLD,2024-02-02,12,0,223000.0,2571 Stratford Dr,32926,1964,2.0,3.0,962.0,Square Feet,7405.2,Square Feet,223100.0,28.366735,-80.77382,1.0,73.0,False,0.0,False,False,Single Family Residence,www.zillow.com/homedetails/2571-Stratford-Dr-Cocoa-FL-32926/43402394_zpid/,110930.0,10889.0,1650.0,8.0,9.0,6.068,5.904,5.783,0.0,True,False,False,False,False,False,False,False,False,1496.0,False,231.8087318087318,3.0,1.2
27,43402661,SINGLE_FAMILY,RECENTLY_SOLD,2024-02-02,12,0,89500.0,5300 Lake Poinsett Rd,32926,1959,1.0,1.0,688.0,Square Feet,137649.0,Square Feet,213000.0,28.35527,-80.80801,0.0,1.0,False,0.0,False,False,nan,www.zillow.com/homedetails/5300-Lake-Poinsett-Rd-Cocoa-FL-32926/43402661_zpid/,152230.0,10889.0,1200.0,17.0,5.0,5.99,5.958,6.562,0.0,False,False,False,False,False,False,False,False,False,2041.0,False,130.0872093023256,3.0,2.6
28,43403175,SINGLE_FAMILY,RECENTLY_SOLD,2024-02-02,12,0,197000.0,410 Lincoln Rd,32926,1960,1.0,3.0,825.0,Square Feet,6098.4,Square Feet,197200.0,28.35562,-80.7891,1.0,80.0,False,0.0,False,False,Single Family Residence,www.zillow.com/homedetails/410-Lincoln-Rd-Cocoa-FL-32926/43403175_zpid/,87650.0,10889.0,1300.0,28.0,10.0,6.068,5.904,5.783,1.0,True,False,False,False,True,False,False,False,False,1559.0,False,238.78787878787878,3.0,1.6
29,43417726,SINGLE_FAMILY,RECENTLY_SOLD,2024-02-02,12,0,250000.0,1245 Arlington Cir,32952,1977,2.0,3.0,1273.0,Square Feet,11324.999999999998,Square Feet,289400.0,28.400156,-80.674,0.0,37.0,False,0.0,False,False,nan,www.zillow.com/homedetails/1245-Arlington-Cir-Merritt-Island-FL-32952/43417726_zpid/,273780.0,39760.0,2350.0,19.0,11.0,6.068,5.904,5.783,0.0,False,False,False,False,False,False,False,False,False,1394.0,False,196.38648860958367,6.0,2.2
30,43443807,SINGLE_FAMILY,RECENTLY_SOLD,2024-02-02,12,0,215000.0,7989 Bradwick Way,32940,1996,2.0,4.0,2804.0,Square Feet,13068.0,Square Feet,743000.0,28.222166,-80.704,0.0,5.0,False,0.0,False,False,nan,www.zillow.com/homedetails/7989-Bradwick-Way-Melbourne-FL-32940/43443807_zpid/,637200.0,19307.0,4249.0,24.0,20.0,6.068,5.904,5.783,0.0,False,True,False,False,False,False,False,False,False,10767.0,False,76.67617689015692,8.0,2.9
31,43470272,SINGLE_FAMILY,RECENTLY_SOLD,2024-02-02,12,0,200000.0,500 Sacre Coeur Dr,32935,1973,2.0,4.0,1812.0,Square Feet,9583.0,Square Feet,369900.0,28.11493,-80.66773,0.0,6.0,False,0.0,False,False,nan,www.zillow.com/homedetails/500-Sacre-Coeur-Dr-Melbourne-FL-32935/43470272_zpid/,318750.0,19307.0,2199.0,9.0,10.0,6.068,5.904,5.783,0.0,False,False,False,False,False,False,False,False,False,2063.0,False,110.37527593818984,6.0,1.7
32,54615666,SINGLE_FAMILY,RECENTLY_SOLD,2024-02-02,12,0,249000.0,1935 Fillmore Ave,32935,1958,1.0,3.0,1032.0,Square Feet,7840.8,Square Feet,249100.0,28.127338,-80.652565,2.0,70.0,False,0.0,False,False,Single Family Residence,www.zillow.com/homedetails/1935-Fillmore-Ave-Melbourne-FL-32935/54615666_zpid/,181940.0,19307.0,1800.0,6.0,11.0,6.068,5.904,5.783,1.0,True,False,False,False,True,False,False,False,False,551.0,False,241.27906976744185,4.0,0.5
33,43370911,SINGLE_FAMILY,RECENTLY_SOLD,2024-02-01,13,0,80000.0,3530 Kelly Rd,32754,1957,2.0,3.0,1191.0,Square Feet,6969.0,Square Feet,167400.0,28.67457,-80.85319,0.0,16.0,False,0.0,False,False,nan,www.zillow.com/homedetails/3530-Kelly-Rd-Mims-FL-32754/43370911_zpid/,108050.0,25911.0,1889.0,21.0,9.0,5.99,5.958,6.562,0.0,False,False,False,False,False,False,False,False,False,697.0,False,67.17044500419816,5.0,0.6
34,43376284,SINGLE_FAMILY,RECENTLY_SOLD,2024-02-01,13,0,85000.0,1011 English St,32796,1958,1.0,2.0,1072.0,Square Feet,7840.0,Square Feet,183600.0,28.617062,-80.815346,0.0,30.0,False,0.0,False,False,nan,www.zillow.com/homedetails/1011-English-St-Titusville-FL-32796/43376284_zpid/,123820.0,7433.0,1657.0,19.0,16.0,5.99,5.958,6.562,0.0,False,False,False,False,False,False,False,False,False,997.0,False,79.2910447761194,5.0,2.4
35,43402233,SINGLE_FAMILY,RECENTLY_SOLD,2024-02-01,13,0,215000.0,651 N Range Rd,32926,1947,2.0,2.0,1333.0,Square Feet,14374.799999999996,Square Feet,215100.0,28.365774,-80.77177,4.0,129.0,False,0.0,False,False,Single Family Residence,www.zillow.com/homedetails/651-N-Range-Rd-Cocoa-FL-32926/43402233_zpid/,183630.0,10889.0,1999.0,15.0,15.0,6.068,5.904,5.783,3.0,True,False,False,False,True,False,False,False,False,1960.0,False,161.29032258064515,3.0,1.2
36,43496663,SINGLE_FAMILY,RECENTLY_SOLD,2024-02-01,4,0,220000.0,3266 Edgewood Dr NE,32905,1973,2.0,3.0,1313.0,Square Feet,9583.2,Square Feet,282100.0,28.01281,-80.574585,16.0,444.0,False,0.0,False,False,Single Family Residence,www.zillow.com/homedetails/3266-Edgewood-Dr-NE-Palm-Bay-FL-32905/43496663_zpid/,211860.0,53787.0,1800.0,10.0,6.0,6.714,6.051,6.953,0.0,True,False,False,False,False,False,False,False,False,1400.0,False,167.55521706016756,3.0,3.6
37,54620184,SINGLE_FAMILY,RECENTLY_SOLD,2024-02-01,13,1,150000.0,609 Seven Gables Cir SE,32909,1986,2.0,3.0,1500.0,Square Feet,14373.999999999996,Square Feet,285700.0,27.967577,-80.65485,0.0,3.0,False,0.0,False,False,nan,www.zillow.com/homedetails/609-Seven-Gables-Cir-SE-Palm-Bay-FL-32909/54620184_zpid/,236320.0,53787.0,1999.0,19.0,10.0,6.068,5.904,5.783,0.0,False,False,False,False,False,False,False,False,False,3979.0,False,100.0,4.0,1.1
38,80766748,SINGLE_FAMILY,RECENTLY_SOLD,2024-02-01,13,0,165000.0,1504 Belleview Rd,32922,2006,2.0,3.0,1178.0,Square Feet,5662.8,Square Feet,165100.0,28.364555,-80.75329,2.0,113.0,False,0.0,False,False,Single Family Residence,www.zillow.com/homedetails/1504-Belleview-Rd-Cocoa-FL-32922/80766748_zpid/,118380.0,10889.0,1949.0,13.0,13.0,6.068,5.904,5.783,1.0,True,False,False,False,True,False,False,False,False,1697.0,False,140.0679117147708,2.0,1.4
39,43385594,SINGLE_FAMILY,RECENTLY_SOLD,2024-01-31,14,0,250000.0,2185 Kansas St,32780,1979,2.0,3.0,1560.0,Square Feet,8712.0,Square Feet,250100.0,28.552906,-80.82657,1.0,126.0,False,0.0,False,False,Single Family Residence,www.zillow.com/homedetails/2185-Kansas-St-Titusville-FL-32780/43385594_zpid/,245110.0,7433.0,1994.0,8.0,7.0,6.068,5.904,5.783,2.0,True,False,False,False,True,False,False,True,False,619.0,False,160.25641025641025,4.0,1.2
40,43394052,SINGLE_FAMILY,RECENTLY_SOLD,2024-01-31,14,0,240000.0,4291 Ponds Dr,32927,1982,2.0,3.0,1248.0,Square Feet,10018.8,Square Feet,240100.0,28.47163,-80.7913,2.0,66.0,False,0.0,False,False,Single Family Residence,www.zillow.com/homedetails/4291-Ponds-Dr-Cocoa-FL-32927/43394052_zpid/,202490.0,10889.0,1947.0,11.0,7.0,6.068,5.904,5.783,0.0,True,False,False,False,False,False,False,True,False,1029.0,False,192.30769230769232,5.0,0.6
41,43402419,SINGLE_FAMILY,RECENTLY_SOLD,2024-01-31,14,0,237500.0,2511 Stratford Dr,32926,1961,2.0,4.0,1576.0,Square Feet,7840.8,Square Feet,237500.0,28.36387,-80.77295,0.0,66.0,False,0.0,False,False,Single Family Residence,www.zillow.com/homedetails/2511-Stratford-Dr-Cocoa-FL-32926/43402419_zpid/,140580.0,10889.0,1993.0,5.0,12.0,6.068,5.904,5.783,0.0,True,False,False,False,False,False,False,False,False,1615.0,False,150.6979695431472,3.0,1.4
42,43412505,SINGLE_FAMILY,RECENTLY_SOLD,2024-01-31,14,0,198000.0,1017 Montclair Rd,32922,1961,1.0,3.0,872.0,Square Feet,9148.0,Square Feet,198100.0,28.371056,-80.75069,2.0,65.0,False,0.0,False,False,Single Family Residence,www.zillow.com/homedetails/1017-Montclair-Rd-Cocoa-FL-32922/43412505_zpid/,99970.0,10889.0,1494.0,14.0,23.0,6.068,5.904,5.783,0.0,False,False,False,False,False,True,False,False,False,1457.0,False,227.06422018348624,2.0,1.2
43,43486845,SINGLE_FAMILY,RECENTLY_SOLD,2024-01-31,14,0,205000.0,1621 S Apollo Blvd,32901,1957,2.0,2.0,1441.0,Square Feet,5662.8,Square Feet,205100.0,28.08274,-80.61727,4.0,136.0,False,0.0,False,False,Single Family Residence,www.zillow.com/homedetails/1621-S-Apollo-Blvd-Melbourne-FL-32901/43486845_zpid/,210090.0,19307.0,1999.0,13.0,10.0,6.068,5.904,5.783,1.0,True,False,False,False,True,False,False,False,False,1706.0,False,142.26231783483692,5.0,0.6
44,43488666,SINGLE_FAMILY,RECENTLY_SOLD,2024-01-31,78,1,161000.0,235 Bossieux Blvd,32904,1954,2.0,3.0,1424.0,Square Feet,10454.0,Square Feet,161000.0,28.074842,-80.666275,3.0,76.0,False,0.0,False,False,nan,www.zillow.com/homedetails/235-Bossieux-Blvd-West-Melbourne-FL-32904/43488666_zpid/,192210.0,14563.0,1999.0,17.0,10.0,6.068,5.904,5.783,0.0,False,False,False,False,False,False,False,True,False,2900.0,False,113.06179775280899,5.0,0.8
45,43496622,SINGLE_FAMILY,RECENTLY_SOLD,2024-01-31,14,0,180000.0,921 Burn Dr NE,32905,1973,2.0,4.0,1316.0,Square Feet,9583.0,Square Feet,257400.0,28.019571,-80.5758,0.0,67.0,False,0.0,False,False,nan,www.zillow.com/homedetails/921-Burn-Dr-NE-Palm-Bay-FL-32905/43496622_zpid/,215480.0,53787.0,1867.0,7.0,9.0,6.068,5.904,5.783,0.0,False,False,False,False,False,False,False,False,False,3451.0,False,136.77811550151975,3.0,3.2
46,43502523,SINGLE_FAMILY,RECENTLY_SOLD,2024-01-31,14,0,247500.0,851 Forest St NE,32907,1980,2.0,3.0,1347.0,Square Feet,10018.8,Square Feet,247600.0,28.006842,-80.647095,30.0,458.0,False,0.0,False,False,Single Family Residence,www.zillow.com/homedetails/851-Forest-St-NE-Palm-Bay-FL-32907/43502523_zpid/,232210.0,53787.0,1895.0,8.0,8.0,6.068,5.904,5.783,2.0,True,False,False,False,True,True,False,True,False,650.0,False,183.74164810690422,5.0,1.3
47,52525085,SINGLE_FAMILY,RECENTLY_SOLD,2024-01-31,14,0,180000.0,1014 Hooper Ave NE,32905,1980,2.0,3.0,1315.0,Square Feet,11999.999999999998,Square Feet,277900.0,28.0234,-80.62691,1.0,40.0,False,0.0,False,False,Detached Home,www.zillow.com/homedetails/1014-Hooper-Ave-NE-Palm-Bay-FL-32905/52525085_zpid/,229600.0,53787.0,1949.0,8.0,10.0,6.068,5.904,5.783,0.0,False,False,False,False,False,False,False,False,False,3796.0,False,136.88212927756655,4.0,1.8
48,43371508,SINGLE_FAMILY,RECENTLY_SOLD,2024-01-30,15,0,55000.0,2559 Harry T Moore Ave,32754,1957,1.0,2.0,748.0,Square Feet,4791.0,Square Feet,97300.0,28.668121,-80.84019,0.0,26.0,False,0.0,False,False,nan,www.zillow.com/homedetails/2559-Harry-T-Moore-Ave-Mims-FL-32754/43371508_zpid/,60240.0,25911.0,1229.0,21.0,15.0,5.99,5.958,6.562,0.0,False,False,False,False,False,False,False,False,False,1044.0,False,73.52941176470588,5.0,0.4
49,43410833,SINGLE_FAMILY,RECENTLY_SOLD,2024-01-30,15,0,235000.0,1040 Butia St,32953,1964,2.0,4.0,1675.0,Square Feet,7405.0,Square Feet,297500.0,28.374895,-80.70222,0.0,8.0,False,0.0,False,False,nan,www.zillow.com/homedetails/1040-Butia-St-Merritt-Island-FL-32953/43410833_zpid/,271760.0,39760.0,2600.0,15.0,15.0,6.068,5.904,5.783,0.0,False,False,False,False,False,False,False,False,False,3296.0,False,140.29850746268656,4.0,0.9
50,43469860,SINGLE_FAMILY,RECENTLY_SOLD,2024-01-30,15,0,172000.0,2695 Kefauver St,32935,1964,2.0,4.0,1320.0,Square Feet,8276.0,Square Feet,172200.0,28.125784,-80.66682,1.0,61.0,False,0.0,False,False,nan,www.zillow.com/homedetails/2695-Kefauver-St-Melbourne-FL-32935/43469860_zpid/,188340.0,19307.0,2050.0,12.0,7.0,6.068,5.904,5.783,0.0,False,False,False,False,False,False,True,True,False,518.0,False,130.3030303030303,4.0,1.2
51,43511666,SINGLE_FAMILY,RECENTLY_SOLD,2024-01-30,15,1,136000.0,1141 Flagami Rd SE,32909,1999,2.0,3.0,1404.0,Square Feet,21343.999999999996,Square Feet,286300.0,27.989408,-80.639404,1.0,6.0,False,0.0,False,False,nan,www.zillow.com/homedetails/1141-Flagami-Rd-SE-Palm-Bay-FL-32909/43511666_zpid/,283050.0,53787.0,2103.0,13.0,13.0,6.068,5.904,5.783,0.0,False,False,False,False,False,False,False,False,False,771.0,False,96.86609686609687,4.0,1.2
52,54604495,SINGLE_FAMILY,RECENTLY_SOLD,2024-01-30,15,0,220000.0,2165 Emerald Ct,32953,1968,2.0,3.0,1242.0,Square Feet,10018.0,Square Feet,220200.0,28.39584,-80.70338,0.0,18.0,False,0.0,False,False,nan,www.zillow.com/homedetails/2165-Emerald-Ct-Merritt-Island-FL-32953/54604495_zpid/,267090.0,39760.0,2100.0,19.0,10.0,6.068,5.904,5.783,0.0,False,False,False,False,False,False,False,False,False,3383.0,False,177.13365539452496,9.0,1.2
53,43388772,SINGLE_FAMILY,RECENTLY_SOLD,2024-01-29,16,0,190800.0,935 Elkcam Blvd,32927,1965,2.0,3.0,1092.0,Square Feet,7405.0,Square Feet,190800.0,28.483292,-80.7791,1.0,40.0,False,0.0,False,False,Single Family Residence,www.zillow.com/homedetails/935-Elkcam-Blvd-Cocoa-FL-32927/43388772_zpid/,155000.0,10889.0,1829.0,8.0,6.0,6.068,5.904,5.783,0.0,False,False,False,False,False,False,False,False,False,621.0,False,174.72527472527472,8.0,1.1
54,43410912,SINGLE_FAMILY,RECENTLY_SOLD,2024-01-29,16,0,200000.0,870 Sandgate St,32953,1965,2.0,4.0,1396.0,Square Feet,9583.0,Square Feet,277200.0,28.37171,-80.70795,0.0,33.0,False,0.0,False,False,nan,www.zillow.com/homedetails/870-Sandgate-St-Merritt-Island-FL-32953/43410912_zpid/,268090.0,39760.0,2184.0,18.0,12.0,6.068,5.904,5.783,0.0,False,False,False,False,False,False,False,False,False,3674.0,False,143.26647564469914,4.0,0.7
55,54615931,SINGLE_FAMILY,RECENTLY_SOLD,2024-01-29,16,0,75000.0,1001 W Eau Gallie Blvd APT 203,32935,1980,1.5,1.0,828.0,Square Feet,2178.0,Square Feet,143200.0,28.127867,-80.634544,0.0,14.0,False,0.0,False,False,nan,www.zillow.com/homedetails/1001-W-Eau-Gallie-Blvd-APT-203-Melbourne-FL-32935/54615931_zpid/,130340.0,19307.0,1400.0,14.0,8.0,5.99,5.958,6.562,0.0,False,True,False,False,False,False,False,False,False,287.0,False,90.57971014492753,4.0,1.2
56,84635341,SINGLE_FAMILY,RECENTLY_SOLD,2024-01-29,16,1,80000.0,2241 Angel Rd SE,32909,2007,3.0,3.0,2272.0,Square Feet,10018.0,Square Feet,336000.0,27.939253,-80.62813,0.0,14.0,False,0.0,False,False,nan,www.zillow.com/homedetails/2241-Angel-Rd-SE-Palm-Bay-FL-32909/84635341_zpid/,357500.0,53787.0,2500.0,9.0,14.0,5.99,5.958,6.562,0.0,False,True,False,False,False,False,False,False,False,6185.0,False,35.2112676056338,6.0,2.1
57,43370510,SINGLE_FAMILY,RECENTLY_SOLD,2024-01-26,19,0,220000.0,3530 Brevard Rd,32754,1984,2.0,3.0,1170.0,Square Feet,44866.8,Square Feet,234300.0,28.696934,-80.85552,3.0,159.0,False,0.0,False,False,Single Family Residence,www.zillow.com/homedetails/3530-Brevard-Rd-Mims-FL-32754/43370510_zpid/,178770.0,25911.0,2050.0,16.0,15.0,6.068,5.904,5.783,1.0,True,False,False,False,True,False,False,False,False,2656.0,False,188.03418803418805,7.0,0.4
58,43371525,SINGLE_FAMILY,RECENTLY_SOLD,2024-01-26,19,0,164900.0,2681 Orange Ave,32754,1959,1.0,2.0,592.0,Square Feet,7405.2,Square Feet,164900.0,28.671465,-80.84126,0.0,49.0,False,0.0,False,False,Single Family Residence,www.zillow.com/homedetails/2681-Orange-Ave-Mims-FL-32754/43371525_zpid/,70360.0,25911.0,1200.0,25.0,12.0,6.068,5.904,5.783,0.0,True,False,False,False,False,False,False,True,False,1075.0,False,278.5472972972973,7.0,2.4
59,43380779,SINGLE_FAMILY,RECENTLY_SOLD,2024-01-26,19,0,250000.0,1505 Littler Dr,32780,1966,2.0,3.0,1542.0,Square Feet,7840.8,Square Feet,250300.0,28.576912,-80.81972,1.0,144.0,False,0.0,False,False,Single Family Residence,www.zillow.com/homedetails/1505-Littler-Dr-Titusville-FL-32780/43380779_zpid/,193470.0,7433.0,1931.0,12.0,8.0,6.068,5.904,5.783,1.0,True,False,False,False,True,False,False,False,False,1877.0,False,162.12710765239947,6.0,0.5
60,43414464,SINGLE_FAMILY,RECENTLY_SOLD,2024-01-26,19,0,189900.0,118 Explorer St,32922,1959,1.0,3.0,864.0,Square Feet,7405.2,Square Feet,190000.0,28.353867,-80.747765,0.0,45.0,False,0.0,False,False,Single Family Residence,www.zillow.com/homedetails/118-Explorer-St-Cocoa-FL-32922/43414464_zpid/,121940.0,10889.0,1270.0,29.0,17.0,6.068,5.904,5.783,0.0,True,False,False,False,False,False,False,True,False,2151.0,False,219.79166666666666,3.0,0.8
61,43477589,SINGLE_FAMILY,RECENTLY_SOLD,2024-01-26,19,1,78000.0,2295 Wood St,32904,1959,1.0,1.0,520.0,Square Feet,6969.0,Square Feet,40700.0,28.07313,-80.68582,0.0,9.0,False,0.0,False,False,nan,www.zillow.com/homedetails/2295-Wood-St-Melbourne-FL-32904/43477589_zpid/,78950.0,19307.0,1350.0,11.0,12.0,5.99,5.958,6.562,0.0,False,False,False,False,False,False,False,False,False,1206.0,False,150.0,5.0,1.3
62,43512008,SINGLE_FAMILY,RECENTLY_SOLD,2024-01-26,19,0,226000.0,146 Decordre Rd SE,32909,1981,2.0,2.0,1065.0,Square Feet,10018.8,Square Feet,226100.0,27.996658,-80.66441,1.0,133.0,False,0.0,False,False,Single Family Residence,www.zillow.com/homedetails/146-Decordre-Rd-SE-Palm-Bay-FL-32909/43512008_zpid/,209920.0,53787.0,1749.0,5.0,14.0,6.068,5.904,5.783,1.0,True,False,False,False,True,False,False,False,False,3364.0,False,212.20657276995306,4.0,0.5
63,43372125,SINGLE_FAMILY,RECENTLY_SOLD,2024-01-25,20,0,240000.0,3741 Ranger St,32796,1985,2.0,3.0,1285.0,Square Feet,7840.8,Square Feet,240000.0,28.645208,-80.859344,0.0,121.0,False,0.0,False,False,Single Family Residence,www.zillow.com/homedetails/3741-Ranger-St-Titusville-FL-32796/43372125_zpid/,177750.0,7433.0,1813.0,8.0,8.0,6.068,5.904,5.783,2.0,True,False,False,False,True,False,False,False,False,537.0,False,186.7704280155642,3.0,0.8
64,43380400,SINGLE_FAMILY,RECENTLY_SOLD,2024-01-25,20,0,249000.0,231 Narvaez Dr,32780,1964,2.0,4.0,1580.0,Square Feet,9147.6,Square Feet,249300.0,28.574312,-80.80113,1.0,89.0,False,0.0,False,False,Single Family Residence,www.zillow.com/homedetails/231-Narvaez-Dr-Titusville-FL-32780/43380400_zpid/,145430.0,7433.0,2043.0,9.0,7.0,6.068,5.904,5.783,0.0,True,False,False,False,False,False,False,False,False,1886.0,False,157.59493670886076,6.0,1.1
65,43394387,SINGLE_FAMILY,RECENTLY_SOLD,2024-01-25,20,0,156000.0,4230 Ponds Dr,32927,1981,2.0,3.0,1026.0,Square Feet,10454.0,Square Feet,234500.0,28.473097,-80.79183,0.0,29.0,False,0.0,False,False,nan,www.zillow.com/homedetails/4230-Ponds-Dr-Cocoa-FL-32927/43394387_zpid/,184460.0,10889.0,1781.0,17.0,8.0,6.068,5.904,5.783,0.0,False,True,False,False,False,False,False,False,False,2488.0,False,152.046783625731,5.0,0.7
66,43402145,SINGLE_FAMILY,RECENTLY_SOLD,2024-01-25,20,0,146400.0,745 Cox Rd,32926,1974,2.0,3.0,2018.0,Square Feet,40075.00000000001,Square Feet,259200.0,28.368237,-80.7875,0.0,12.0,False,0.0,False,False,nan,www.zillow.com/homedetails/745-Cox-Rd-Cocoa-FL-32926/43402145_zpid/,244260.0,10889.0,2576.0,25.0,17.0,6.068,5.904,5.783,0.0,False,False,False,False,False,False,False,False,False,679.0,False,72.54707631318136,3.0,1.7
67,43413838,SINGLE_FAMILY,RECENTLY_SOLD,2024-01-25,20,0,172000.0,2481 Victor Rd,32926,1964,2.0,3.0,1212.0,Square Feet,7840.8,Square Feet,172000.0,28.363901,-80.77032,2.0,79.0,False,0.0,False,False,Single Family Residence,www.zillow.com/homedetails/2481-Victor-Rd-Cocoa-FL-32926/43413838_zpid/,118390.0,10889.0,1962.0,8.0,7.0,6.068,5.904,5.783,0.0,True,False,False,False,False,False,False,False,False,667.0,False,141.9141914191419,3.0,1.3
68,43456139,SINGLE_FAMILY,RECENTLY_SOLD,2024-01-25,20,0,140000.0,1150 Joyal Dr,32934,1959,1.0,2.0,1228.0,Square Feet,10018.0,Square Feet,181000.0,28.135654,-80.67264,0.0,16.0,False,0.0,False,False,nan,www.zillow.com/homedetails/1150-Joyal-Dr-Melbourne-FL-32934/43456139_zpid/,117370.0,19307.0,1797.0,10.0,12.0,6.068,5.904,5.783,0.0,False,False,False,False,False,False,False,False,False,1816.0,False,114.00651465798046,4.0,1.2
69,43504693,SINGLE_FAMILY,RECENTLY_SOLD,2024-01-25,20,0,215000.0,424 Foxdall Ave NE,32907,1985,2.0,3.0,1255.0,Square Feet,10890.0,Square Feet,215000.0,28.006662,-80.60863,0.0,90.0,False,0.0,False,False,Single Family Residence,www.zillow.com/homedetails/424-Foxdall-Ave-NE-Palm-Bay-FL-32907/43504693_zpid/,220150.0,53787.0,1970.0,49.0,8.0,6.068,5.904,5.783,2.0,False,False,True,False,True,False,False,False,False,463.0,False,171.31474103585657,6.0,2.9
70,80769206,SINGLE_FAMILY,RECENTLY_SOLD,2024-01-25,20,1,14100.0,2836 Fitzpatrick Ave SW,32908,2006,2.0,3.0,2006.0,Square Feet,10018.0,Square Feet,207200.0,27.926256,-80.68094,2.0,26.0,False,0.0,False,False,nan,www.zillow.com/homedetails/2836-Fitzpatrick-Ave-SW-Palm-Bay-FL-32908/80769206_zpid/,30990.0,53787.0,2070.0,15.0,10.0,5.99,5.958,6.562,0.0,False,False,False,False,False,False,False,False,False,496.0,False,7.028913260219342,7.0,1.3
71,43407021,SINGLE_FAMILY,RECENTLY_SOLD,2024-01-24,21,0,100000.0,2111 Otterbein Ave,32926,1968,1.0,3.0,1081.0,Square Feet,7405.2,Square Feet,138000.0,28.395378,-80.76127,7.0,217.0,False,0.0,False,False,Single Family Residence,www.zillow.com/homedetails/2111-Otterbein-Ave-Cocoa-FL-32926/43407021_zpid/,149990.0,10889.0,1797.0,9.0,8.0,5.99,5.958,6.562,0.0,True,False,False,False,False,False,False,False,False,925.0,False,92.50693802035153,4.0,1.1
72,43494202,SINGLE_FAMILY,RECENTLY_SOLD,2024-01-24,21,1,200000.0,1233 York Cir,32904,1984,2.0,3.0,1524.0,Square Feet,14810.399999999996,Square Feet,200000.0,28.052238,-80.64297,9.0,189.0,False,23.0,False,False,Single Family Residence,www.zillow.com/homedetails/1233-York-Cir-Melbourne-FL-32904/43494202_zpid/,279050.0,53787.0,2299.0,22.0,11.0,6.068,5.904,5.783,2.0,True,True,False,False,True,False,False,False,False,1472.0,False,131.23359580052494,5.0,1.5
73,43393692,SINGLE_FAMILY,RECENTLY_SOLD,2024-01-23,20,0,233200.0,6425 Stillwater Ave,32927,1988,2.0,4.0,1984.0,Square Feet,10019.0,Square Feet,233200.0,28.471148,-80.80201,427.0,8740.0,False,0.0,False,True,Single Family Residence,www.zillow.com/homedetails/6425-Stillwater-Ave-Cocoa-FL-32927/43393692_zpid/,275220.0,10889.0,2394.0,13.0,11.0,5.99,5.958,6.562,2.0,False,False,True,False,True,False,False,False,False,4213.0,False,117.54032258064517,5.0,0.4
74,43408592,SINGLE_FAMILY,RECENTLY_SOLD,2024-01-23,22,0,165000.0,1319 N Fiske Blvd,32922,1956,2.0,3.0,1228.0,Square Feet,9147.6,Square Feet,165000.0,28.375698,-80.74354,5.0,155.0,False,0.0,False,False,Single Family Residence,www.zillow.com/homedetails/1319-N-Fiske-Blvd-Cocoa-FL-32922/43408592_zpid/,50250.0,10889.0,1864.0,11.0,11.0,6.068,5.904,5.783,1.0,True,False,False,False,True,False,False,True,False,867.0,True,134.36482084690553,4.0,1.4
75,43414423,SINGLE_FAMILY,RECENTLY_SOLD,2024-01-23,22,0,235000.0,132 Aurora St,32922,1960,2.0,4.0,1460.0,Square Feet,10454.0,Square Feet,235200.0,28.353252,-80.748566,2.0,128.0,False,0.0,False,False,Single Family Residence,www.zillow.com/homedetails/132-Aurora-St-Cocoa-FL-32922/43414423_zpid/,141300.0,10889.0,2031.0,11.0,10.0,6.068,5.904,5.783,1.0,False,False,True,False,True,False,False,False,False,2074.0,False,160.95890410958904,3.0,0.8
76,43452216,SINGLE_FAMILY,RECENTLY_SOLD,2024-01-23,22,0,226100.0,469 Wilson Ave,32937,1963,2.0,4.0,17853.0,Square Feet,7840.0,Square Feet,358400.0,28.18086,-80.60198,2.0,338.0,False,0.0,False,False,nan,www.zillow.com/homedetails/469-Wilson-Ave-Satellite-Beach-FL-32937/43452216_zpid/,356440.0,20367.0,4500.0,100.0,36.0,6.068,5.904,5.783,0.0,False,False,False,False,False,False,False,False,False,4514.0,False,12.664538172856103,9.0,0.4
77,43497505,SINGLE_FAMILY,RECENTLY_SOLD,2024-01-23,22,0,151100.0,2951 Gemini Ave NE,32905,1969,2.0,3.0,1328.0,Square Feet,7405.0,Square Feet,151100.0,28.014677,-80.582375,1.0,62.0,False,0.0,False,False,nan,www.zillow.com/homedetails/2951-Gemini-Ave-NE-Palm-Bay-FL-32905/43497505_zpid/,183890.0,53787.0,1774.0,6.0,5.0,6.068,5.904,5.783,0.0,False,False,False,False,False,False,False,False,False,2866.0,False,113.78012048192771,3.0,3.2
78,43500031,SINGLE_FAMILY,RECENTLY_SOLD,2024-01-23,22,0,245000.0,733 Nevada Dr NE,32907,1987,2.0,3.0,1915.0,Square Feet,22651.2,Square Feet,245000.0,28.016708,-80.64481,1.0,198.0,False,0.0,False,False,Single Family Residence,www.zillow.com/homedetails/733-Nevada-Dr-NE-Palm-Bay-FL-32907/43500031_zpid/,293590.0,53787.0,2400.0,17.0,17.0,6.068,5.904,5.783,2.0,True,False,False,False,True,False,True,True,False,4244.0,False,127.9373368146214,5.0,2.7
79,43508909,SINGLE_FAMILY,RECENTLY_SOLD,2024-01-23,22,0,180000.0,180 San Luis St SW,32908,1983,2.0,3.0,896.0,Square Feet,10018.8,Square Feet,180100.0,27.992401,-80.67358,1.0,105.0,False,0.0,False,False,Single Family Residence,www.zillow.com/homedetails/180-San-Luis-St-SW-Palm-Bay-FL-32908/43508909_zpid/,166610.0,53787.0,1599.0,9.0,6.0,6.068,5.904,5.783,1.0,True,False,False,False,True,False,False,False,False,3076.0,False,200.89285714285714,6.0,0.9
80,43525003,SINGLE_FAMILY,RECENTLY_SOLD,2024-01-23,22,1,26300.0,419 Egret Cir,32976,1971,2.0,2.0,759.0,Square Feet,4791.0,Square Feet,26300.0,27.883526,-80.509514,0.0,132.0,False,0.0,False,False,nan,www.zillow.com/homedetails/419-Egret-Cir-Barefoot-Bay-FL-32976/43525003_zpid/,32500.0,19341.0,1500.0,20.0,15.0,5.99,5.958,6.562,0.0,False,False,False,False,False,False,False,False,False,1185.0,False,34.65085638998683,6.0,7.3
81,54602725,SINGLE_FAMILY,RECENTLY_SOLD,2024-01-23,22,0,247200.0,1785 Milton St,32780,1964,2.0,3.0,2130.0,Square Feet,7405.0,Square Feet,247400.0,28.562899,-80.82181,0.0,47.0,False,0.0,False,False,nan,www.zillow.com/homedetails/1785-Milton-St-Titusville-FL-32780/54602725_zpid/,227480.0,7433.0,2345.0,9.0,18.0,6.068,5.904,5.783,0.0,False,False,False,False,False,False,False,False,False,3261.0,False,116.05633802816901,6.0,0.5
82,66694251,SINGLE_FAMILY,RECENTLY_SOLD,2024-01-23,22,0,105100.0,855 Atz Rd,32950,2004,3.0,3.0,3010.0,Square Feet,88861.99999999999,Square Feet,237600.0,27.983166,-80.605415,2.0,186.0,False,0.0,False,False,nan,www.zillow.com/homedetails/855-Atz-Rd-Malabar-FL-32950/66694251_zpid/,112200.0,46375.0,2963.0,13.0,18.0,5.99,5.958,6.562,0.0,False,False,False,False,False,False,True,False,False,1680.0,False,34.91694352159468,6.0,4.6
83,43376600,SINGLE_FAMILY,RECENTLY_SOLD,2024-01-22,23,0,62200.0,918 Wager Ave,32780,1953,1.0,3.0,864.0,Square Feet,12196.0,Square Feet,106800.0,28.604866,-80.81366,1.0,285.0,False,0.0,False,False,nan,www.zillow.com/homedetails/918-Wager-Ave-Titusville-FL-32780/43376600_zpid/,94350.0,7433.0,1300.0,19.0,12.0,5.99,5.958,6.562,0.0,False,False,False,False,False,False,False,False,False,1282.0,False,71.99074074074075,5.0,2.5
84,43379906,SINGLE_FAMILY,RECENTLY_SOLD,2024-01-22,23,0,173000.0,520 S Sunrise Dr,32780,1964,2.0,3.0,1204.0,Square Feet,7405.0,Square Feet,173000.0,28.584026,-80.80755,0.0,102.0,False,0.0,True,False,Single Family Residence,www.zillow.com/homedetails/520-S-Sunrise-Dr-Titusville-FL-32780/43379906_zpid/,138900.0,7433.0,1794.0,9.0,5.0,6.068,5.904,5.783,1.0,False,False,True,False,True,False,False,False,False,2448.0,False,143.68770764119603,6.0,1.2
85,80777264,SINGLE_FAMILY,RECENTLY_SOLD,2024-01-22,23,0,50000.0,4121 Aiken Ln,32901,2006,2.0,4.0,1773.0,Square Feet,5662.0,Square Feet,50000.0,28.047626,-80.61017,1.0,41.0,False,0.0,False,False,nan,www.zillow.com/homedetails/4121-Aiken-Ln-Melbourne-FL-32901/80777264_zpid/,278050.0,19307.0,2199.0,11.0,11.0,5.99,5.958,6.562,0.0,False,True,False,False,False,False,False,False,False,3153.0,False,28.20078962210942,3.0,1.1
86,84635624,SINGLE_FAMILY,RECENTLY_SOLD,2024-01-22,23,0,250000.0,3174 Metcalf Ave SW,32908,2007,2.0,3.0,1518.0,Square Feet,10018.8,Square Feet,250100.0,27.915472,-80.69543,3.0,60.0,False,0.0,False,False,Single Family Residence,www.zillow.com/homedetails/3174-Metcalf-Ave-SW-Palm-Bay-FL-32908/84635624_zpid/,223780.0,53787.0,1967.0,8.0,5.0,6.068,5.904,5.783,2.0,True,False,False,False,True,False,False,False,False,3400.0,False,164.69038208168644,7.0,2.4
87,2082094747,SINGLE_FAMILY,RECENTLY_SOLD,2024-01-22,23,0,209000.0,1680 Old Glory Blvd #0,32940,1990,2.0,2.0,1176.0,Square Feet,4791.6,Square Feet,209100.0,28.24983,-80.713,5.0,149.0,False,0.0,False,True,Single Family Residence,www.zillow.com/homedetails/1680-Old-Glory-Blvd-0-Melbourne-FL-32940/2082094747_zpid/,278225.0,19307.0,1749.0,9.0,9.0,6.068,5.904,5.783,1.0,True,False,False,False,True,False,False,False,False,0.0,False,177.72108843537416,8.0,2.1
88,43370812,SINGLE_FAMILY,RECENTLY_SOLD,2024-01-19,26,0,220.0,3103 Highway 1,32754,1966,2.0,3.0,1386.0,Square Feet,20908.8,Square Feet,220300.0,28.68502,-80.85351,0.0,138.0,False,0.0,False,False,Single Family Residence,www.zillow.com/homedetails/3103-Highway-1-Mims-FL-32754/43370812_zpid/,159860.0,25911.0,2136.0,18.0,13.0,5.99,5.958,6.562,1.0,True,False,False,False,True,False,False,False,False,1359.0,False,0.15873015873015872,7.0,1.2
89,43383332,SINGLE_FAMILY,RECENTLY_SOLD,2024-01-19,26,0,180500.0,4465 Swift Ave,32780,1960,2.0,3.0,1165.0,Square Feet,7840.8,Square Feet,243000.0,28.560892,-80.81559,0.0,72.0,False,0.0,False,False,Single Family Residence,www.zillow.com/homedetails/4465-Swift-Ave-Titusville-FL-32780/43383332_zpid/,164650.0,7433.0,1834.0,14.0,7.0,6.068,5.904,5.783,1.0,True,False,False,False,True,False,False,False,False,324.0,False,154.93562231759657,6.0,0.6
90,43383376,SINGLE_FAMILY,RECENTLY_SOLD,2024-01-19,26,0,228000.0,4430 Shaw Ave,32780,1960,2.0,3.0,1150.0,Square Feet,7840.8,Square Feet,228200.0,28.56152,-80.81684,1.0,98.0,False,0.0,False,False,Single Family Residence,www.zillow.com/homedetails/4430-Shaw-Ave-Titusville-FL-32780/43383376_zpid/,170190.0,7433.0,1834.0,15.0,10.0,6.068,5.904,5.783,0.0,True,False,False,False,False,False,False,False,False,813.0,False,198.2608695652174,6.0,0.6
91,43388183,SINGLE_FAMILY,RECENTLY_SOLD,2024-01-19,26,0,250000.0,7580 S Highway 1,32780,1952,2.0,3.0,2207.0,Square Feet,60548.0,Square Feet,250400.0,28.498743,-80.78194,1.0,29.0,False,0.0,False,False,nan,www.zillow.com/homedetails/7580-S-Highway-1-Titusville-FL-32780/43388183_zpid/,160360.0,7433.0,2724.0,30.0,21.0,6.068,5.904,5.783,0.0,False,False,False,False,False,False,False,False,False,2824.0,False,113.27594019030359,4.0,5.4
92,43408071,SINGLE_FAMILY,RECENTLY_SOLD,2024-01-19,26,0,113000.0,1703 Cambridge Dr,32922,1959,2.0,3.0,968.0,Square Feet,417435480.0,Square Feet,97800.0,28.380558,-80.75069,1.0,73.0,False,0.0,False,False,Single Family Residence,www.zillow.com/homedetails/1703-Cambridge-Dr-Cocoa-FL-32922/43408071_zpid/,120710.0,10889.0,1650.0,12.0,9.0,5.99,5.958,6.562,1.0,True,False,False,False,True,False,False,False,False,2532.0,False,116.73553719008264,4.0,0.9
93,43429115,SINGLE_FAMILY,RECENTLY_SOLD,2024-01-19,26,0,235000.0,827 Pine Shadows Ave,32955,1985,2.0,3.0,1510.0,Square Feet,7405.2,Square Feet,277300.0,28.321844,-80.72602,1.0,128.0,False,0.0,False,False,Single Family Residence,www.zillow.com/homedetails/827-Pine-Shadows-Ave-Rockledge-FL-32955/43429115_zpid/,274560.0,13560.0,2199.0,11.0,9.0,6.068,5.904,5.783,2.0,True,False,False,False,True,False,False,True,True,830.0,True,155.6291390728477,4.0,1.0
94,43429481,SINGLE_FAMILY,RECENTLY_SOLD,2024-01-19,26,0,185500.0,7 Knollwood Dr,32955,1964,2.0,3.0,1480.0,Square Feet,9583.2,Square Feet,185500.0,28.323494,-80.71235,2.0,105.0,False,0.0,True,False,Single Family Residence,www.zillow.com/homedetails/7-Knollwood-Dr-Rockledge-FL-32955/43429481_zpid/,209430.0,13560.0,2199.0,14.0,7.0,6.068,5.904,5.783,0.0,True,False,False,False,False,False,False,False,False,3002.0,False,125.33783783783784,8.0,1.3
95,43460049,SINGLE_FAMILY,RECENTLY_SOLD,2024-01-19,26,0,150000.0,3135 Shady Dell Ln APT 201,32935,1974,2.0,3.0,1174.0,Square Feet,2178.0,Square Feet,150200.0,28.159819,-80.64355,0.0,9.0,False,0.0,False,False,nan,www.zillow.com/homedetails/3135-Shady-Dell-Ln-APT-201-Melbourne-FL-32935/43460049_zpid/,137230.0,19307.0,1800.0,39.0,8.0,6.068,5.904,5.783,0.0,False,True,False,False,False,False,False,True,False,1980.0,True,127.76831345826236,4.0,1.4
96,43479677,SINGLE_FAMILY,RECENTLY_SOLD,2024-01-19,26,0,213500.0,1160 Kenmore St NW,32907,1986,2.0,3.0,1356.0,Square Feet,10018.0,Square Feet,269800.0,28.03367,-80.704704,0.0,37.0,False,0.0,False,False,nan,www.zillow.com/homedetails/1160-Kenmore-St-NW-Palm-Bay-FL-32907/43479677_zpid/,215770.0,53787.0,1949.0,8.0,8.0,6.068,5.904,5.783,0.0,False,False,False,False,False,False,False,False,False,557.0,False,157.44837758112095,5.0,0.9
97,43483125,SINGLE_FAMILY,RECENTLY_SOLD,2024-01-19,26,0,215000.0,1361 Gilpin St NW,32907,1986,2.0,3.0,1056.0,Square Feet,10018.8,Square Feet,215700.0,28.027699,-80.710976,2.0,248.0,False,0.0,False,False,Single Family Residence,www.zillow.com/homedetails/1361-Gilpin-St-NW-Palm-Bay-FL-32907/43483125_zpid/,185930.0,53787.0,1747.0,5.0,5.0,6.068,5.904,5.783,2.0,True,False,False,False,True,False,False,False,False,2788.0,False,203.59848484848484,5.0,0.5
98,43501980,SINGLE_FAMILY,RECENTLY_SOLD,2024-01-19,26,0,189000.0,159 Copenhaver Ave NE,32907,1985,2.0,3.0,1462.0,Square Feet,10018.8,Square Feet,189200.0,28.001581,-80.65706,0.0,59.0,False,0.0,False,False,Single Family Residence,www.zillow.com/homedetails/159-Copenhaver-Ave-NE-Palm-Bay-FL-32907/43501980_zpid/,238770.0,53787.0,1912.0,12.0,7.0,6.068,5.904,5.783,2.0,True,False,False,False,True,False,False,False,False,1624.0,False,129.2749658002736,6.0,0.7
99,43513273,SINGLE_FAMILY,RECENTLY_SOLD,2024-01-19,26,0,212000.0,872 Autumn St SE,32909,1984,2.0,3.0,1025.0,Square Feet,10018.8,Square Feet,212700.0,27.975286,-80.64938,1.0,49.0,False,0.0,False,False,Single Family Residence,www.zillow.com/homedetails/872-Autumn-St-SE-Palm-Bay-FL-32909/43513273_zpid/,175030.0,53787.0,1726.0,17.0,13.0,6.068,5.904,5.783,2.0,True,False,False,False,True,False,False,False,False,354.0,False,206.82926829268294,4.0,1.1
100,54618340,SINGLE_FAMILY,RECENTLY_SOLD,2024-01-19,26,0,210000.0,2911 Sailfish St NE,32905,1960,2.0,3.0,1725.0,Square Feet,12632.4,Square Feet,242400.0,28.029177,-80.58291,28.0,769.0,False,0.0,False,False,Single Family Residence,www.zillow.com/homedetails/2911-Sailfish-St-NE-Palm-Bay-FL-32905/54618340_zpid/,213560.0,53787.0,2450.0,31.0,25.0,6.068,5.904,5.783,0.0,True,False,False,False,False,False,False,False,False,676.0,False,121.73913043478261,3.0,2.5
101,43384892,SINGLE_FAMILY,RECENTLY_SOLD,2024-01-18,27,0,217000.0,4735 Key Largo Dr W,32780,1962,2.0,3.0,1136.0,Square Feet,9148.0,Square Feet,224300.0,28.555878,-80.80976,0.0,49.0,False,0.0,False,False,Single Family Residence,www.zillow.com/homedetails/4735-Key-Largo-Dr-W-Titusville-FL-32780/43384892_zpid/,131970.0,7433.0,1800.0,11.0,6.0,6.068,5.904,5.783,0.0,False,False,False,False,False,False,False,False,False,337.0,False,191.0211267605634,4.0,1.1
102,54601563,SINGLE_FAMILY,RECENTLY_SOLD,2024-01-18,27,0,129900.0,2179 Turpentine Rd,32754,1985,3.0,4.0,2716.0,Square Feet,87991.2,Square Feet,130100.0,28.65831,-80.881226,2.0,90.0,False,0.0,False,False,Single Family Residence,www.zillow.com/homedetails/2179-Turpentine-Rd-Mims-FL-32754/54601563_zpid/,408050.0,7433.0,3214.0,23.0,23.0,6.068,5.904,5.783,6.0,True,False,False,False,True,True,False,True,False,2761.0,False,47.82768777614138,5.0,2.2
103,54615745,SINGLE_FAMILY,RECENTLY_SOLD,2024-01-18,27,0,227000.0,536 E Ford Cir,32935,1968,2.0,3.0,1560.0,Square Feet,8712.0,Square Feet,251800.0,28.115536,-80.65194,2.0,148.0,False,0.0,False,False,Single Family Residence,www.zillow.com/homedetails/536-E-Ford-Cir-Melbourne-FL-32935/54615745_zpid/,268740.0,19307.0,2017.0,10.0,10.0,6.068,5.904,5.783,0.0,True,False,False,False,False,False,False,True,False,3900.0,False,145.51282051282053,5.0,1.3
104,43378517,SINGLE_FAMILY,RECENTLY_SOLD,2024-01-17,28,0,180000.0,1320 Dozier Ave,32780,1959,2.0,3.0,1624.0,Square Feet,8712.0,Square Feet,198500.0,28.599617,-80.82234,1.0,110.0,False,0.0,False,False,Single Family Residence,www.zillow.com/homedetails/1320-Dozier-Ave-Titusville-FL-32780/43378517_zpid/,179150.0,7433.0,1999.0,10.0,8.0,6.068,5.904,5.783,0.0,True,False,False,False,False,True,False,False,False,601.0,False,110.83743842364532,4.0,1.9
105,43410684,SINGLE_FAMILY,RECENTLY_SOLD,2024-01-17,28,0,250000.0,340 Tiki Dr,32953,1965,2.0,4.0,1752.0,Square Feet,12196.799999999996,Square Feet,341700.0,28.374348,-80.69292,5.0,89.0,False,1.0,False,False,Single Family Residence,www.zillow.com/homedetails/340-Tiki-Dr-Merritt-Island-FL-32953/43410684_zpid/,297270.0,39760.0,2709.0,19.0,15.0,6.068,5.904,5.783,2.0,True,True,False,False,True,False,False,True,False,1318.0,False,142.69406392694063,6.0,1.3
106,43472041,SINGLE_FAMILY,RECENTLY_SOLD,2024-01-17,28,0,200000.0,658 Ironwood Dr,32935,1963,2.0,4.0,1694.0,Square Feet,7840.8,Square Feet,218300.0,28.117514,-80.64399,1.0,103.0,False,0.0,False,False,Single Family Residence,www.zillow.com/homedetails/658-Ironwood-Dr-Melbourne-FL-32935/43472041_zpid/,265360.0,19307.0,1999.0,5.0,8.0,6.068,5.904,5.783,1.0,True,False,False,False,True,False,False,False,False,958.0,False,118.06375442739079,5.0,1.2
107,43498991,SINGLE_FAMILY,RECENTLY_SOLD,2024-01-17,28,0,240000.0,921 Wateroak Dr NE,32905,1988,2.0,2.0,933.0,Square Feet,4356.0,Square Feet,240800.0,28.02068,-80.61213,1.0,58.0,False,62.0,False,False,Single Family Residence,www.zillow.com/homedetails/921-Wateroak-Dr-NE-Palm-Bay-FL-32905/43498991_zpid/,190690.0,53787.0,1500.0,18.0,13.0,6.068,5.904,5.783,1.0,True,True,False,False,True,False,False,False,False,739.0,False,257.2347266881029,4.0,2.0
108,54602126,SINGLE_FAMILY,RECENTLY_SOLD,2024-01-17,28,0,246500.0,1712 S Eden Cir,32796,1967,2.0,4.0,1736.0,Square Feet,7840.0,Square Feet,257500.0,28.612635,-80.82268,0.0,37.0,False,0.0,False,False,nan,www.zillow.com/homedetails/1712-S-Eden-Cir-Titusville-FL-32796/54602126_zpid/,195940.0,7433.0,2100.0,12.0,7.0,6.068,5.904,5.783,0.0,False,False,False,False,False,False,False,False,False,3339.0,False,141.99308755760367,5.0,2.3
109,43403557,SINGLE_FAMILY,RECENTLY_SOLD,2024-01-16,29,0,199900.0,3773 Brockington Cir,32926,1964,1.0,4.0,1216.0,Square Feet,8712.0,Square Feet,200000.0,28.349895,-80.78256,2.0,54.0,False,0.0,False,False,Single Family Residence,www.zillow.com/homedetails/3773-Brockington-Cir-Cocoa-FL-32926/43403557_zpid/,93050.0,10889.0,1949.0,8.0,5.0,6.068,5.904,5.783,0.0,True,False,False,False,False,False,False,False,False,1620.0,False,164.39144736842104,3.0,1.6
110,43429428,SINGLE_FAMILY,RECENTLY_SOLD,2024-01-16,29,0,239000.0,49 Scott Ln,32955,1959,2.0,3.0,2068.0,Square Feet,9147.6,Square Feet,239900.0,28.325415,-80.71576,0.0,92.0,False,0.0,False,False,Single Family Residence,www.zillow.com/homedetails/49-Scott-Ln-Rockledge-FL-32955/43429428_zpid/,145100.0,13560.0,2370.0,20.0,17.0,6.068,5.904,5.783,0.0,False,False,False,False,False,False,False,False,False,1854.0,False,115.57059961315281,8.0,1.1
111,43480289,SINGLE_FAMILY,RECENTLY_SOLD,2024-01-16,29,0,230000.0,1341 Jarvis St NW,32907,1990,2.0,3.0,1132.0,Square Feet,10454.4,Square Feet,230800.0,28.02963,-80.70927,1.0,43.0,False,0.0,False,False,Single Family Residence,www.zillow.com/homedetails/1341-Jarvis-St-NW-Palm-Bay-FL-32907/43480289_zpid/,197880.0,53787.0,1779.0,5.0,5.0,6.068,5.904,5.783,2.0,True,False,False,False,True,False,False,False,False,2594.0,False,203.18021201413427,5.0,0.6
112,43504936,SINGLE_FAMILY,RECENTLY_SOLD,2024-01-16,29,0,210000.0,1832 Ardmore St NE,32907,1993,2.0,3.0,1358.0,Square Feet,10018.0,Square Feet,276600.0,28.011885,-80.617935,0.0,10.0,False,0.0,False,False,nan,www.zillow.com/homedetails/1832-Ardmore-St-NE-Palm-Bay-FL-32907/43504936_zpid/,225400.0,53787.0,1970.0,37.0,9.0,6.068,5.904,5.783,0.0,False,False,False,False,False,False,False,False,False,524.0,False,154.63917525773195,6.0,2.5
113,43415913,SINGLE_FAMILY,RECENTLY_SOLD,2024-01-15,30,0,233000.0,511 Palm Ave,32952,1959,2.0,5.0,1618.0,Square Feet,10890.0,Square Feet,233700.0,28.347834,-80.69491,0.0,86.0,False,0.0,False,False,Single Family Residence,www.zillow.com/homedetails/511-Palm-Ave-Merritt-Island-FL-32952/43415913_zpid/,232260.0,39760.0,2450.0,22.0,18.0,6.068,5.904,5.783,0.0,False,False,False,False,False,True,False,True,False,2287.0,False,144.00494437577257,8.0,1.1
114,43371945,SINGLE_FAMILY,RECENTLY_SOLD,2024-01-12,33,0,105000.0,2141 Trieste Dr,32754,1982,1.0,3.0,984.0,Square Feet,9147.0,Square Feet,105200.0,28.657145,-80.8641,0.0,24.0,False,0.0,False,False,nan,www.zillow.com/homedetails/2141-Trieste-Dr-Mims-FL-32754/43371945_zpid/,155620.0,25911.0,1749.0,6.0,9.0,5.99,5.958,6.562,0.0,False,False,False,False,False,False,False,False,False,759.0,False,106.70731707317073,5.0,1.3
115,43380439,SINGLE_FAMILY,RECENTLY_SOLD,2024-01-12,33,0,250000.0,236 Pinedo Dr,32780,1960,2.0,3.0,1219.0,Square Feet,9147.6,Square Feet,251000.0,28.572302,-80.801384,1.0,53.0,False,0.0,False,False,Single Family Residence,www.zillow.com/homedetails/236-Pinedo-Dr-Titusville-FL-32780/43380439_zpid/,145830.0,7433.0,1875.0,5.0,8.0,6.068,5.904,5.783,1.0,True,False,False,False,True,False,False,False,False,2515.0,False,205.08613617719442,6.0,1.1
116,43383907,SINGLE_FAMILY,RECENTLY_SOLD,2024-01-12,33,0,220000.0,755 Delespine Ave,32780,1962,2.0,4.0,2100.0,Square Feet,10890.0,Square Feet,243600.0,28.56624,-80.809586,0.0,47.0,False,0.0,False,False,Single Family Residence,www.zillow.com/homedetails/755-Delespine-Ave-Titusville-FL-32780/43383907_zpid/,202990.0,7433.0,2400.0,18.0,17.0,6.068,5.904,5.783,2.0,True,False,False,False,True,True,False,True,False,750.0,False,104.76190476190476,6.0,0.6
117,43392958,SINGLE_FAMILY,RECENTLY_SOLD,2024-01-12,33,0,195000.0,5589 Jamaica Rd,32927,1981,2.0,3.0,1176.0,Square Feet,10018.8,Square Feet,195800.0,28.463623,-80.81536,1.0,25.0,False,0.0,False,False,Single Family Residence,www.zillow.com/homedetails/5589-Jamaica-Rd-Cocoa-FL-32927/43392958_zpid/,253400.0,10889.0,1949.0,8.0,10.0,6.068,5.904,5.783,2.0,True,False,False,False,True,True,False,False,False,3567.0,False,165.81632653061226,5.0,1.0
118,43394608,SINGLE_FAMILY,RECENTLY_SOLD,2024-01-12,33,0,165000.0,6065 Rena Ave,32927,1987,2.0,3.0,1368.0,Square Feet,10454.4,Square Feet,171000.0,28.464827,-80.80119,1.0,70.0,False,0.0,False,False,Single Family Residence,www.zillow.com/homedetails/6065-Rena-Ave-Cocoa-FL-32927/43394608_zpid/,222210.0,10889.0,2095.0,6.0,10.0,6.068,5.904,5.783,2.0,True,False,False,False,True,False,False,True,False,3007.0,False,120.6140350877193,5.0,0.1
119,43405037,SINGLE_FAMILY,RECENTLY_SOLD,2024-01-12,33,0,240000.0,3014 Sea Gate Cir,32953,1983,2.0,2.0,1100.0,Square Feet,11325.6,Square Feet,241000.0,28.411724,-80.70755,1.0,101.0,False,0.0,False,False,Single Family Residence,www.zillow.com/homedetails/3014-Sea-Gate-Cir-Merritt-Island-FL-32953/43405037_zpid/,177980.0,39760.0,1710.0,14.0,14.0,6.068,5.904,5.783,1.0,True,False,False,True,True,False,False,False,False,862.0,False,218.1818181818182,9.0,2.3
120,43430884,SINGLE_FAMILY,RECENTLY_SOLD,2024-01-12,33,0,246000.0,962 Bartlett Ln,32955,1966,2.0,3.0,1256.0,Square Feet,8712.0,Square Feet,247000.0,28.313927,-80.73468,0.0,43.0,False,0.0,False,False,Single Family Residence,www.zillow.com/homedetails/962-Bartlett-Ln-Rockledge-FL-32955/43430884_zpid/,224980.0,13560.0,2100.0,12.0,10.0,6.068,5.904,5.783,1.0,True,False,False,False,True,False,False,False,False,3464.0,False,195.85987261146497,4.0,0.7
121,43469486,SINGLE_FAMILY,RECENTLY_SOLD,2024-01-12,33,0,194000.0,2514 Pepper Ave,32935,1962,2.0,3.0,816.0,Square Feet,6534.0,Square Feet,194800.0,28.123339,-80.6633,3.0,91.0,False,0.0,False,False,Single Family Residence,www.zillow.com/homedetails/2514-Pepper-Ave-Melbourne-FL-32935/43469486_zpid/,170470.0,19307.0,1500.0,20.0,7.0,6.068,5.904,5.783,0.0,False,False,False,False,False,False,False,False,False,2962.0,False,237.7450980392157,4.0,1.2
122,43472940,SINGLE_FAMILY,RECENTLY_SOLD,2024-01-12,33,0,245000.0,836 Pelican Ln,32935,1950,1.0,2.0,1000.0,Square Feet,9147.6,Square Feet,246000.0,28.120785,-80.62431,2.0,49.0,False,0.0,False,False,Single Family Residence,www.zillow.com/homedetails/836-Pelican-Ln-Melbourne-FL-32935/43472940_zpid/,263770.0,19307.0,1770.0,9.0,12.0,6.068,5.904,5.783,1.0,True,False,False,False,True,False,False,False,False,3720.0,False,245.0,5.0,1.0
123,43485195,SINGLE_FAMILY,RECENTLY_SOLD,2024-01-12,33,0,249000.0,532 Higgs Ave NW,32907,1988,2.0,3.0,1056.0,Square Feet,10454.4,Square Feet,249600.0,28.010258,-80.70777,0.0,50.0,False,0.0,False,False,Single Family Residence,www.zillow.com/homedetails/532-Higgs-Ave-NW-Palm-Bay-FL-32907/43485195_zpid/,167700.0,53787.0,1744.0,5.0,5.0,6.068,5.904,5.783,2.0,True,False,False,False,True,False,False,False,False,2832.0,False,235.79545454545453,6.0,2.1
124,52966968,SINGLE_FAMILY,RECENTLY_SOLD,2024-01-12,33,0,225000.0,459 Fountain St SW,32908,2003,2.0,3.0,2020.0,Square Feet,10018.8,Square Feet,295500.0,27.926014,-80.68335,1.0,42.0,False,0.0,False,False,Single Family Residence,www.zillow.com/homedetails/459-Fountain-St-SW-Palm-Bay-FL-32908/52966968_zpid/,247650.0,53787.0,2069.0,15.0,10.0,6.068,5.904,5.783,2.0,True,False,False,False,True,False,False,False,False,87.0,False,111.38613861386139,7.0,1.3
125,54605032,SINGLE_FAMILY,RECENTLY_SOLD,2024-01-12,33,0,230100.0,1030 Cocoa St,32953,1963,2.0,3.0,1437.0,Square Feet,7405.2,Square Feet,230900.0,28.374674,-80.702995,1.0,45.0,False,0.0,False,False,Single Family Residence,www.zillow.com/homedetails/1030-Cocoa-St-Merritt-Island-FL-32953/54605032_zpid/,253020.0,39760.0,2197.0,22.0,12.0,6.068,5.904,5.783,1.0,True,False,False,False,True,False,False,False,False,2884.0,False,160.12526096033403,4.0,0.9
126,71023914,SINGLE_FAMILY,RECENTLY_SOLD,2024-01-12,33,1,160000.0,375 Lachine St SW,32908,2005,2.0,3.0,1858.0,Square Feet,10018.0,Square Feet,281700.0,27.937197,-80.67909,0.0,8.0,False,0.0,False,False,nan,www.zillow.com/homedetails/375-Lachine-St-SW-Palm-Bay-FL-32908/71023914_zpid/,241930.0,53787.0,1994.0,10.0,5.0,6.068,5.904,5.783,0.0,False,False,False,False,False,False,False,False,False,896.0,False,86.11410118406889,7.0,0.6
127,43403520,SINGLE_FAMILY,RECENTLY_SOLD,2024-01-11,34,0,220000.0,3771 Catalina Dr,32926,1964,2.0,3.0,1066.0,Square Feet,7840.8,Square Feet,220900.0,28.348541,-80.78325,1.0,35.0,False,0.0,False,False,Single Family Residence,www.zillow.com/homedetails/3771-Catalina-Dr-Cocoa-FL-32926/43403520_zpid/,144150.0,10889.0,1800.0,9.0,7.0,6.068,5.904,5.783,1.0,True,False,False,False,True,False,False,False,False,692.0,False,206.37898686679173,3.0,1.7
128,43471592,SINGLE_FAMILY,RECENTLY_SOLD,2024-01-11,34,0,160000.0,1814 Pontiac Cir N,32935,1964,2.0,3.0,1322.0,Square Feet,7840.0,Square Feet,160300.0,28.120611,-80.65025,0.0,33.0,False,0.0,False,False,nan,www.zillow.com/homedetails/1814-Pontiac-Cir-N-Melbourne-FL-32935/43471592_zpid/,206370.0,19307.0,1988.0,13.0,5.0,6.068,5.904,5.783,0.0,False,False,False,False,False,False,False,False,False,3000.0,False,121.02874432677761,5.0,0.9
129,43501939,SINGLE_FAMILY,RECENTLY_SOLD,2024-01-11,34,0,235000.0,535 Albatross St NE,32907,1979,1.0,3.0,1125.0,Square Feet,10890.0,Square Feet,236000.0,27.999414,-80.658554,0.0,24.0,False,0.0,False,False,Single Family Residence,www.zillow.com/homedetails/535-Albatross-St-NE-Palm-Bay-FL-32907/43501939_zpid/,193500.0,53787.0,1800.0,6.0,6.0,6.068,5.904,5.783,0.0,True,False,False,False,False,False,False,True,False,2999.0,False,208.88888888888889,6.0,0.6
130,43397998,SINGLE_FAMILY,RECENTLY_SOLD,2024-01-10,35,1,5000.0,6882 Columbine Dr,32927,1989,1.0,2.0,920.0,Square Feet,7405.0,Square Feet,59300.0,28.442627,-80.76976,0.0,32.0,False,0.0,False,False,nan,www.zillow.com/homedetails/6882-Columbine-Dr-Cocoa-FL-32927/43397998_zpid/,52070.0,10889.0,1500.0,17.0,7.0,5.99,5.958,6.562,0.0,False,False,False,False,False,False,False,False,False,495.0,False,5.434782608695652,2.0,4.2
131,43467632,SINGLE_FAMILY,RECENTLY_SOLD,2024-01-10,35,0,125000.0,541 Ann Ave,32935,1962,1.0,3.0,1056.0,Square Feet,9583.0,Square Feet,192100.0,28.138662,-80.65351,1.0,28.0,False,0.0,False,False,nan,www.zillow.com/homedetails/541-Ann-Ave-Melbourne-FL-32935/43467632_zpid/,141730.0,19307.0,1797.0,6.0,11.0,5.99,5.958,6.562,0.0,False,False,False,False,False,False,False,False,False,1180.0,False,118.37121212121212,4.0,0.3
132,43479411,SINGLE_FAMILY,RECENTLY_SOLD,2024-01-10,35,0,191000.0,43 Emerson Dr NW,32907,1992,2.0,3.0,1615.0,Square Feet,10018.0,Square Feet,276900.0,28.032486,-80.725525,0.0,34.0,False,0.0,False,False,nan,www.zillow.com/homedetails/43-Emerson-Dr-NW-Palm-Bay-FL-32907/43479411_zpid/,241690.0,53787.0,1980.0,9.0,8.0,6.068,5.904,5.783,0.0,False,False,False,False,False,False,False,False,False,1518.0,False,118.26625386996903,5.0,0.4
133,43497044,SINGLE_FAMILY,RECENTLY_SOLD,2024-01-10,35,0,185000.0,710 Abeto St NE,32905,1973,2.0,2.0,1636.0,Square Feet,7840.8,Square Feet,235600.0,28.014164,-80.57711,0.0,22.0,False,0.0,False,False,Single Family Residence,www.zillow.com/homedetails/710-Abeto-St-NE-Palm-Bay-FL-32905/43497044_zpid/,220700.0,53787.0,1814.0,19.0,8.0,6.068,5.904,5.783,0.0,True,False,False,False,False,False,False,False,False,855.0,False,113.08068459657702,3.0,3.4
134,43517273,SINGLE_FAMILY,RECENTLY_SOLD,2024-01-10,35,0,239900.0,1610 Sandusky St SE,32909,1994,2.0,3.0,1076.0,Square Feet,10018.8,Square Feet,240900.0,27.94395,-80.62531,2.0,39.0,False,0.0,False,False,Single Family Residence,www.zillow.com/homedetails/1610-Sandusky-St-SE-Palm-Bay-FL-32909/43517273_zpid/,182480.0,53787.0,1935.0,9.0,7.0,6.068,5.904,5.783,2.0,True,False,False,False,True,False,False,False,False,2765.0,False,222.95539033457248,6.0,3.1
135,43497238,SINGLE_FAMILY,RECENTLY_SOLD,2024-01-09,36,0,160000.0,961 Canal Ln NE,32905,1965,2.0,3.0,1296.0,Square Feet,9147.6,Square Feet,160700.0,28.02185,-80.5823,1.0,48.0,False,0.0,True,False,Single Family Residence,www.zillow.com/homedetails/961-Canal-Ln-NE-Palm-Bay-FL-32905/43497238_zpid/,186630.0,53787.0,1849.0,8.0,9.0,6.068,5.904,5.783,0.0,True,False,False,False,False,False,False,True,False,404.0,False,123.45679012345678,3.0,2.8
136,54604046,SINGLE_FAMILY,RECENTLY_SOLD,2024-01-09,36,0,249000.0,1990 Juniper Cir,32926,1980,2.0,3.0,1526.0,Square Feet,44866.0,Square Feet,249500.0,28.391714,-80.80516,0.0,16.0,False,0.0,False,False,nan,www.zillow.com/homedetails/1990-Juniper-Cir-Cocoa-FL-32926/54604046_zpid/,225540.0,10889.0,2149.0,11.0,12.0,6.068,5.904,5.783,0.0,False,False,False,False,False,False,False,False,False,3466.0,False,163.17169069462648,3.0,2.6
137,43372446,SINGLE_FAMILY,RECENTLY_SOLD,2024-01-08,37,0,246000.0,2920 Beth St,32796,1964,2.0,3.0,1120.0,Square Feet,8276.4,Square Feet,246000.0,28.646152,-80.840195,2.0,29.0,False,0.0,True,False,Single Family Residence,www.zillow.com/homedetails/2920-Beth-St-Titusville-FL-32796/43372446_zpid/,154040.0,7433.0,2050.0,22.0,12.0,6.068,5.904,5.783,0.0,True,False,False,False,False,False,False,False,False,2016.0,False,219.64285714285714,5.0,1.5
138,43379262,SINGLE_FAMILY,RECENTLY_SOLD,2024-01-08,37,0,233000.0,1311 Greenwood St,32780,1956,3.0,3.0,1577.0,Square Feet,10018.8,Square Feet,233900.0,28.599644,-80.82663,1.0,17.0,False,0.0,False,False,Single Family Residence,www.zillow.com/homedetails/1311-Greenwood-St-Titusville-FL-32780/43379262_zpid/,156150.0,7433.0,1970.0,10.0,10.0,6.068,5.904,5.783,0.0,True,False,False,False,False,False,False,False,False,656.0,False,147.74889029803424,4.0,1.7
139,43415259,SINGLE_FAMILY,RECENTLY_SOLD,2024-01-08,37,0,175000.0,25 South St,32955,1914,1.0,2.0,771.0,Square Feet,12196.799999999996,Square Feet,170500.0,28.349077,-80.72529,0.0,43.0,False,0.0,False,False,Single Family Residence,www.zillow.com/homedetails/25-South-St-Rockledge-FL-32955/43415259_zpid/,141030.0,13560.0,1335.0,15.0,12.0,6.068,5.904,5.783,0.0,False,False,False,False,False,False,False,False,False,708.0,False,226.97795071335926,8.0,0.7
140,43435480,SINGLE_FAMILY,RECENTLY_SOLD,2024-01-08,37,0,180000.0,750 Newfound Harbor Dr,32952,1950,1.0,2.0,867.0,Square Feet,12631.999999999998,Square Feet,225300.0,28.344196,-80.66487,0.0,9.0,False,0.0,False,False,nan,www.zillow.com/homedetails/750-Newfound-Harbor-Dr-Merritt-Island-FL-32952/43435480_zpid/,177500.0,39760.0,1599.0,13.0,12.0,6.068,5.904,5.783,0.0,False,False,False,False,False,False,False,False,False,2259.0,False,207.61245674740485,8.0,1.4
141,43468742,SINGLE_FAMILY,RECENTLY_SOLD,2024-01-08,37,0,170000.0,2193 Leewood Blvd,32935,1960,1.0,3.0,1033.0,Square Feet,7405.2,Square Feet,170800.0,28.13207,-80.657425,0.0,18.0,False,0.0,False,False,Single Family Residence,www.zillow.com/homedetails/2193-Leewood-Blvd-Melbourne-FL-32935/43468742_zpid/,178810.0,19307.0,1800.0,6.0,11.0,6.068,5.904,5.783,0.0,True,False,False,False,False,False,False,False,False,2475.0,False,164.56921587608906,4.0,0.6
142,43471123,SINGLE_FAMILY,RECENTLY_SOLD,2024-01-08,37,0,180000.0,1792 Jackson Ave,32935,1959,2.0,3.0,1134.0,Square Feet,9147.0,Square Feet,273600.0,28.126345,-80.64997,0.0,32.0,False,0.0,False,False,nan,www.zillow.com/homedetails/1792-Jackson-Ave-Melbourne-FL-32935/43471123_zpid/,185520.0,19307.0,1800.0,11.0,5.0,6.068,5.904,5.783,0.0,False,False,False,False,False,False,False,False,False,1581.0,False,158.73015873015873,4.0,0.5
143,43474923,SINGLE_FAMILY,RECENTLY_SOLD,2024-01-08,37,0,217500.0,341 Avenida De Paz,32903,1957,2.0,2.0,768.0,Square Feet,7405.0,Square Feet,218500.0,28.103785,-80.57613,2.0,54.0,False,0.0,False,False,nan,www.zillow.com/homedetails/341-Avenida-De-Paz-Indialantic-FL-32903/43474923_zpid/,250350.0,52625.0,1778.0,24.0,19.0,6.068,5.904,5.783,0.0,False,False,False,False,False,False,False,False,False,3302.0,False,283.203125,9.0,0.2
144,43513558,SINGLE_FAMILY,RECENTLY_SOLD,2024-01-08,37,0,235000.0,1051 Pasadena Rd SE,32909,1983,2.0,2.0,888.0,Square Feet,10018.8,Square Feet,235400.0,27.97267,-80.640915,1.0,49.0,False,0.0,False,False,Single Family Residence,www.zillow.com/homedetails/1051-Pasadena-Rd-SE-Palm-Bay-FL-32909/43513558_zpid/,154300.0,53787.0,1594.0,10.0,9.0,6.068,5.904,5.783,1.0,True,False,False,False,True,False,False,False,False,329.0,False,264.63963963963965,4.0,0.4
145,43376393,SINGLE_FAMILY,RECENTLY_SOLD,2024-01-05,40,0,245000.0,116 La Grange Ave,32796,1955,2.0,3.0,1293.0,Square Feet,13939.2,Square Feet,246000.0,28.6169,-80.813034,1.0,30.0,False,0.0,False,False,Single Family Residence,www.zillow.com/homedetails/116-La-Grange-Ave-Titusville-FL-32796/43376393_zpid/,156000.0,7433.0,1964.0,21.0,8.0,6.068,5.904,5.783,0.0,True,False,False,False,False,False,False,False,False,2996.0,False,189.48182521268367,5.0,2.6
146,43394796,SINGLE_FAMILY,RECENTLY_SOLD,2024-01-05,40,0,235000.0,6400 W Baker Cir,32927,1987,2.0,3.0,981.0,Square Feet,10018.8,Square Feet,236000.0,28.470993,-80.803474,1.0,30.0,False,0.0,False,False,Single Family Residence,www.zillow.com/homedetails/6400-W-Baker-Cir-Cocoa-FL-32927/43394796_zpid/,167620.0,10889.0,1685.0,15.0,6.0,6.068,5.904,5.783,0.0,True,False,False,False,False,False,False,False,False,1883.0,False,239.55147808358817,5.0,0.4
147,43402436,SINGLE_FAMILY,RECENTLY_SOLD,2024-01-05,40,0,110000.0,2516 Stratford Dr,32926,1961,1.5,3.0,1036.0,Square Feet,7405.0,Square Feet,142000.0,28.364294,-80.77367,0.0,12.0,False,0.0,False,False,nan,www.zillow.com/homedetails/2516-Stratford-Dr-Cocoa-FL-32926/43402436_zpid/,111210.0,10889.0,1749.0,9.0,9.0,5.99,5.958,6.562,0.0,False,False,False,False,False,False,False,False,False,1565.0,False,106.17760617760618,3.0,1.3
148,43411712,SINGLE_FAMILY,RECENTLY_SOLD,2024-01-05,40,0,233000.0,285 Patrick Ave,32953,1961,2.0,3.0,1294.0,Square Feet,7405.2,Square Feet,233800.0,28.366625,-80.694275,1.0,38.0,False,0.0,False,False,Single Family Residence,www.zillow.com/homedetails/285-Patrick-Ave-Merritt-Island-FL-32953/43411712_zpid/,235270.0,39760.0,2053.0,8.0,5.0,6.068,5.904,5.783,0.0,True,False,False,False,False,True,False,True,False,2895.0,False,180.06182380216384,4.0,0.9
149,43470725,SINGLE_FAMILY,RECENTLY_SOLD,2024-01-05,40,0,102500.0,574 Clarke Ave,32935,1968,2.0,4.0,1384.0,Square Feet,6534.0,Square Feet,230800.0,28.116236,-80.659065,0.0,46.0,False,0.0,False,False,nan,www.zillow.com/homedetails/574-Clarke-Ave-Melbourne-FL-32935/43470725_zpid/,224160.0,19307.0,2078.0,9.0,6.0,5.99,5.958,6.562,0.0,False,False,False,False,False,False,False,False,False,4023.0,False,74.0606936416185,6.0,1.4
150,43471909,SINGLE_FAMILY,RECENTLY_SOLD,2024-01-05,40,0,210000.0,1845 Ixora Dr W,32935,1968,2.0,3.0,1320.0,Square Feet,8276.4,Square Feet,210900.0,28.114367,-80.65058,0.0,34.0,False,0.0,False,False,Single Family Residence,www.zillow.com/homedetails/1845-Ixora-Dr-W-Melbourne-FL-32935/43471909_zpid/,238150.0,19307.0,2064.0,9.0,7.0,6.068,5.904,5.783,1.0,True,False,False,False,True,False,False,False,False,3611.0,False,159.0909090909091,5.0,1.3
151,55823717,SINGLE_FAMILY,RECENTLY_SOLD,2024-01-05,40,0,190000.0,1121 Gary Hunt Rd,32926,1984,1.0,1.0,800.0,Square Feet,44430.99999999999,Square Feet,190800.0,28.375587,-80.77702,0.0,7.0,False,0.0,False,False,nan,www.zillow.com/homedetails/1121-Gary-Hunt-Rd-Cocoa-FL-32926/55823717_zpid/,153670.0,10889.0,1229.0,12.0,10.0,6.068,5.904,5.783,0.0,False,False,False,False,False,False,False,False,False,2597.0,False,237.5,3.0,0.8
152,63471905,SINGLE_FAMILY,RECENTLY_SOLD,2024-01-05,40,0,174500.0,3646 Magoon Ave,32754,1977,2.0,2.0,1412.0,Square Feet,19166.0,Square Feet,253900.0,28.766909,-80.873146,0.0,15.0,False,0.0,False,False,nan,www.zillow.com/homedetails/3646-Magoon-Ave-Mims-FL-32754/63471905_zpid/,201920.0,33900.0,2199.0,18.0,14.0,6.068,5.904,5.783,0.0,False,False,False,False,False,False,False,False,False,2876.0,False,123.58356940509915,7.0,4.6
153,43415197,SINGLE_FAMILY,RECENTLY_SOLD,2024-01-04,41,0,190000.0,128 Saint Charles St,32922,1953,1.0,2.0,748.0,Square Feet,4791.6,Square Feet,190800.0,28.352053,-80.729034,1.0,32.0,False,0.0,False,False,Single Family Residence,www.zillow.com/homedetails/128-Saint-Charles-St-Cocoa-FL-32922/43415197_zpid/,77800.0,10889.0,1229.0,15.0,15.0,6.068,5.904,5.783,0.0,True,False,False,False,False,False,False,False,False,1570.0,False,254.01069518716577,8.0,0.6
154,43423131,SINGLE_FAMILY,RECENTLY_SOLD,2024-01-04,41,0,229900.0,80 N Lee Ct,32952,1978,2.0,2.0,961.0,Square Feet,5227.2,Square Feet,230900.0,28.3555,-80.66691,0.0,18.0,False,0.0,False,False,Single Family Residence,www.zillow.com/homedetails/80-N-Lee-Ct-Merritt-Island-FL-32952/43423131_zpid/,205630.0,39760.0,1707.0,10.0,13.0,6.068,5.904,5.783,1.0,True,False,False,False,True,False,False,False,False,819.0,False,239.2299687825182,8.0,1.9
155,71022709,SINGLE_FAMILY,RECENTLY_SOLD,2024-01-04,41,0,235000.0,5145 Areca Palm St,32927,2005,2.0,3.0,1640.0,Square Feet,43995.6,Square Feet,250200.0,28.431673,-80.83382,0.0,33.0,False,0.0,False,False,Single Family Residence,www.zillow.com/homedetails/5145-Areca-Palm-St-Cocoa-FL-32927/71022709_zpid/,310960.0,10889.0,2230.0,14.0,9.0,6.068,5.904,5.783,2.0,True,True,False,False,True,False,False,True,False,4204.0,True,143.29268292682926,2.0,5.4
156,43376663,SINGLE_FAMILY,RECENTLY_SOLD,2024-01-03,42,0,235000.0,1107 1st Ave,32780,1986,3.0,3.0,1593.0,Square Feet,12196.799999999996,Square Feet,235600.0,28.60397,-80.81034,0.0,55.0,False,0.0,False,False,Single Family Residence,www.zillow.com/homedetails/1107-1st-Ave-Titusville-FL-32780/43376663_zpid/,224600.0,7433.0,2199.0,11.0,10.0,6.068,5.904,5.783,0.0,True,False,False,False,False,False,False,False,False,2907.0,False,147.52040175768988,5.0,2.5
157,43393022,SINGLE_FAMILY,RECENTLY_SOLD,2024-01-03,42,0,205000.0,5605 Holden Rd,32927,1990,2.0,4.0,1719.0,Square Feet,10018.8,Square Feet,207400.0,28.46382,-80.81731,0.0,20.0,False,0.0,False,False,Single Family Residence,www.zillow.com/homedetails/5605-Holden-Rd-Cocoa-FL-32927/43393022_zpid/,258640.0,10889.0,2197.0,5.0,9.0,6.068,5.904,5.783,2.0,True,False,False,False,True,False,False,False,False,3341.0,False,119.25538103548574,5.0,1.1
158,43467147,SINGLE_FAMILY,RECENTLY_SOLD,2024-01-03,42,0,243000.0,1534 Stewart Ave,32935,1960,1.0,2.0,950.0,Square Feet,13939.2,Square Feet,244100.0,28.131813,-80.63916,0.0,41.0,False,0.0,False,False,Single Family Residence,www.zillow.com/homedetails/1534-Stewart-Ave-Melbourne-FL-32935/43467147_zpid/,187330.0,19307.0,1784.0,6.0,11.0,6.068,5.904,5.783,0.0,True,False,False,False,False,False,False,False,False,2422.0,False,255.78947368421052,4.0,0.9
159,43475470,SINGLE_FAMILY,RECENTLY_SOLD,2024-01-03,42,0,40000.0,101 Herring St,32901,1976,1.0,3.0,1022.0,Square Feet,14810.399999999996,Square Feet,40100.0,28.106327,-80.623184,0.0,11.0,False,0.0,False,False,Single Family Residence,www.zillow.com/homedetails/101-Herring-St-Melbourne-FL-32901/43475470_zpid/,35000.0,19307.0,1849.0,17.0,11.0,5.99,5.958,6.562,1.0,True,False,False,False,True,False,False,False,False,2142.0,False,39.13894324853229,5.0,1.1
160,43526641,SINGLE_FAMILY,RECENTLY_SOLD,2024-01-03,42,1,215000.0,9420 Central Ave,32976,1952,1.0,2.0,952.0,Square Feet,20037.599999999995,Square Feet,216000.0,27.85604,-80.49766,0.0,28.0,False,0.0,False,False,Single Family Residence,www.zillow.com/homedetails/9420-Central-Ave-Micco-FL-32976/43526641_zpid/,171210.0,19341.0,1627.0,17.0,14.0,6.068,5.904,5.783,0.0,True,False,False,False,False,False,False,False,False,2141.0,False,225.8403361344538,6.0,8.6
161,54616318,SINGLE_FAMILY,RECENTLY_SOLD,2024-01-03,42,0,175000.0,690 Lorraine Dr,32935,1958,2.0,3.0,1385.0,Square Feet,10890.0,Square Feet,296800.0,28.1099,-80.62941,0.0,18.0,False,0.0,False,False,nan,www.zillow.com/homedetails/690-Lorraine-Dr-Melbourne-FL-32935/54616318_zpid/,222440.0,19307.0,1949.0,8.0,8.0,6.068,5.904,5.783,0.0,False,False,False,False,False,False,False,False,False,961.0,False,126.35379061371842,5.0,1.1
162,80772321,SINGLE_FAMILY,RECENTLY_SOLD,2024-01-03,42,0,245000.0,1570 De Groodt Rd SW,32908,2006,2.0,3.0,2008.0,Square Feet,10018.0,Square Feet,246100.0,27.959059,-80.677956,1.0,26.0,False,0.0,False,False,nan,www.zillow.com/homedetails/1570-De-Groodt-Rd-SW-Palm-Bay-FL-32908/80772321_zpid/,270440.0,53787.0,2125.0,8.0,6.0,6.068,5.904,5.783,0.0,False,False,False,False,False,False,False,False,False,4537.0,False,122.01195219123505,7.0,0.6
163,251162515,SINGLE_FAMILY,RECENTLY_SOLD,2024-01-03,42,0,250000.0,1629 Rosetine St,32926,1997,2.0,3.0,1782.0,Square Feet,9350.0,Square Feet,251100.0,28.381603,-80.75653,0.0,16.0,False,0.0,False,False,nan,www.zillow.com/homedetails/1629-Rosetine-St-Cocoa-FL-32926/251162515_zpid/,131010.0,10889.0,2244.0,5.0,10.0,6.068,5.904,5.783,0.0,False,False,False,False,False,False,False,True,False,2006.0,False,140.29180695847361,4.0,0.5
164,43429470,SINGLE_FAMILY,RECENTLY_SOLD,2024-01-02,43,0,230000.0,35 Knollwood Dr,32955,1961,2.0,3.0,1209.0,Square Feet,7840.0,Square Feet,231100.0,28.32408,-80.71525,0.0,31.0,False,0.0,False,False,nan,www.zillow.com/homedetails/35-Knollwood-Dr-Rockledge-FL-32955/43429470_zpid/,130270.0,13560.0,1900.0,16.0,11.0,6.068,5.904,5.783,0.0,False,False,False,False,False,False,False,False,False,1948.0,False,190.2398676592225,8.0,1.2
165,43373068,SINGLE_FAMILY,RECENTLY_SOLD,2023-12-29,47,0,233000.0,3020 Avon Ln,32796,1964,2.0,3.0,1343.0,Square Feet,8712.0,Square Feet,234200.0,28.643553,-80.8417,0.0,13.0,False,0.0,False,False,nan,www.zillow.com/homedetails/3020-Avon-Ln-Titusville-FL-32796/43373068_zpid/,161890.0,7433.0,1800.0,6.0,6.0,6.068,5.904,5.783,0.0,False,False,False,False,False,False,False,False,False,2385.0,False,173.4921816827997,3.0,0.8
166,43379762,SINGLE_FAMILY,RECENTLY_SOLD,2023-12-29,47,0,200000.0,159 Beverly St,32780,1956,2.0,3.0,1363.0,Square Feet,7405.0,Square Feet,201000.0,28.583448,-80.80337,0.0,8.0,False,0.0,False,False,nan,www.zillow.com/homedetails/159-Beverly-St-Titusville-FL-32780/43379762_zpid/,128450.0,7433.0,1846.0,5.0,5.0,6.068,5.904,5.783,0.0,False,False,False,False,False,False,False,False,False,2084.0,False,146.7351430667645,6.0,1.4
167,43383537,SINGLE_FAMILY,RECENTLY_SOLD,2023-12-29,47,0,120000.0,4430 Byron Ave,32780,1962,1.0,2.0,903.0,Square Feet,51749280.0,Square Feet,120400.0,28.55981,-80.82976,0.0,7.0,False,0.0,False,False,Single Family Residence,www.zillow.com/homedetails/4430-Byron-Ave-Titusville-FL-32780/43383537_zpid/,146780.0,7433.0,1500.0,20.0,7.0,5.99,5.958,6.562,0.0,True,False,False,False,False,False,False,False,False,2830.0,False,132.89036544850498,6.0,0.9
168,43393300,SINGLE_FAMILY,RECENTLY_SOLD,2023-12-29,47,0,233000.0,6299 Deer Ln,32927,1984,2.0,3.0,832.0,Square Feet,10454.4,Square Feet,233800.0,28.468563,-80.81714,0.0,16.0,False,0.0,False,False,Single Family Residence,www.zillow.com/homedetails/6299-Deer-Ln-Cocoa-FL-32927/43393300_zpid/,175670.0,10889.0,1314.0,11.0,11.0,6.068,5.904,5.783,0.0,True,False,False,False,False,False,False,False,False,2749.0,False,280.0480769230769,8.0,0.9
169,43402391,SINGLE_FAMILY,RECENTLY_SOLD,2023-12-29,47,0,225000.0,2577 Stratford Dr,32926,1965,2.0,3.0,1380.0,Square Feet,7405.0,Square Feet,226100.0,28.366749,-80.77312,0.0,13.0,False,0.0,False,False,nan,www.zillow.com/homedetails/2577-Stratford-Dr-Cocoa-FL-32926/43402391_zpid/,139470.0,10889.0,1949.0,13.0,8.0,6.068,5.904,5.783,0.0,False,False,False,False,False,False,False,False,False,754.0,False,163.04347826086956,3.0,1.2
170,43403158,SINGLE_FAMILY,RECENTLY_SOLD,2023-12-29,47,0,125000.0,251 Lincoln Rd,32926,2007,1.0,3.0,1480.0,Square Feet,6969.6,Square Feet,125400.0,28.35713,-80.78989,1.0,31.0,False,0.0,False,False,Single Family Residence,www.zillow.com/homedetails/251-Lincoln-Rd-Cocoa-FL-32926/43403158_zpid/,175030.0,10889.0,2100.0,9.0,12.0,5.99,5.958,6.562,0.0,True,False,False,False,False,False,False,False,False,2358.0,False,84.45945945945945,3.0,1.5
171,43408087,SINGLE_FAMILY,RECENTLY_SOLD,2023-12-29,47,0,198000.0,1205 Princeton Rd,32922,1959,2.0,3.0,1477.0,Square Feet,7840.8,Square Feet,200300.0,28.380568,-80.74862,0.0,13.0,False,0.0,False,False,Single Family Residence,www.zillow.com/homedetails/1205-Princeton-Rd-Cocoa-FL-32922/43408087_zpid/,171490.0,10889.0,1945.0,13.0,13.0,6.068,5.904,5.783,1.0,True,False,False,False,True,False,False,False,False,2271.0,False,134.05551794177387,4.0,1.0
172,43414574,SINGLE_FAMILY,RECENTLY_SOLD,2023-12-29,47,0,147500.0,723 Ixora Ave,32922,1963,2.0,3.0,1488.0,Square Feet,10018.8,Square Feet,148000.0,28.34951,-80.74748,0.0,52.0,False,0.0,False,False,Single Family Residence,www.zillow.com/homedetails/723-Ixora-Ave-Cocoa-FL-32922/43414574_zpid/,173780.0,10889.0,2089.0,13.0,10.0,6.068,5.904,5.783,0.0,True,False,False,False,False,False,False,False,False,966.0,False,99.1263440860215,3.0,0.6
173,43488446,SINGLE_FAMILY,RECENTLY_SOLD,2023-12-29,47,0,247000.0,177 Woodland Dr,32904,1962,2.0,3.0,778.0,Square Feet,7405.2,Square Feet,248000.0,28.081945,-80.65809,0.0,18.0,False,0.0,False,False,Single Family Residence,www.zillow.com/homedetails/177-Woodland-Dr-West-Melbourne-FL-32904/43488446_zpid/,221750.0,14563.0,1494.0,10.0,11.0,6.068,5.904,5.783,1.0,True,False,False,False,True,False,False,False,False,1408.0,False,317.48071979434445,6.0,1.4
174,43492139,SINGLE_FAMILY,RECENTLY_SOLD,2023-12-29,47,0,235000.0,2550 Vernon Dr NE,32905,1957,2.0,3.0,1140.0,Square Feet,9583.2,Square Feet,236000.0,28.058758,-80.59379,0.0,23.0,False,0.0,False,False,Single Family Residence,www.zillow.com/homedetails/2550-Vernon-Dr-NE-Palm-Bay-FL-32905/43492139_zpid/,155610.0,53787.0,1749.0,13.0,17.0,6.068,5.904,5.783,1.0,True,False,False,False,True,False,False,True,False,1049.0,False,206.140350877193,3.0,0.7
175,43492443,SINGLE_FAMILY,RECENTLY_SOLD,2023-12-29,47,0,122500.0,2264 Washington St NE,32905,1964,1.0,2.0,676.0,Square Feet,6969.0,Square Feet,177000.0,28.05578,-80.59904,0.0,19.0,False,0.0,False,False,nan,www.zillow.com/homedetails/2264-Washington-St-NE-Palm-Bay-FL-32905/43492443_zpid/,172800.0,53787.0,1450.0,17.0,24.0,5.99,5.958,6.562,0.0,False,False,False,False,False,False,False,False,False,2479.0,False,181.2130177514793,3.0,0.6
176,43493179,SINGLE_FAMILY,RECENTLY_SOLD,2023-12-29,47,0,195000.0,305 Crown Blvd,32901,1960,1.0,3.0,956.0,Square Feet,6098.4,Square Feet,195700.0,28.04578,-80.61648,0.0,14.0,False,0.0,False,False,Single Family Residence,www.zillow.com/homedetails/305-Crown-Blvd-Melbourne-FL-32901/43493179_zpid/,160010.0,19307.0,1724.0,10.0,10.0,6.068,5.904,5.783,0.0,True,False,False,False,False,False,False,False,False,1099.0,False,203.97489539748955,3.0,1.4
177,43498701,SINGLE_FAMILY,RECENTLY_SOLD,2023-12-29,47,0,239900.0,721 Arundo Ave NE,32905,1978,2.0,3.0,1386.0,Square Feet,11325.6,Square Feet,240900.0,28.014605,-80.61363,0.0,26.0,False,0.0,False,False,Single Family Residence,www.zillow.com/homedetails/721-Arundo-Ave-NE-Palm-Bay-FL-32905/43498701_zpid/,210780.0,53787.0,2104.0,33.0,10.0,6.068,5.904,5.783,1.0,True,False,False,False,True,False,False,False,False,2873.0,False,173.08802308802308,6.0,2.4
178,43510279,SINGLE_FAMILY,RECENTLY_SOLD,2023-12-29,47,0,219000.0,460 Harrington St SW,32908,1984,2.0,2.0,1032.0,Square Feet,11761.2,Square Feet,219600.0,27.983528,-80.68307,1.0,45.0,False,0.0,False,False,Single Family Residence,www.zillow.com/homedetails/460-Harrington-St-SW-Palm-Bay-FL-32908/43510279_zpid/,183210.0,53787.0,1700.0,6.0,12.0,6.068,5.904,5.783,2.0,True,False,False,False,True,False,False,False,False,3375.0,False,212.2093023255814,6.0,0.9
179,54616188,SINGLE_FAMILY,RECENTLY_SOLD,2023-12-29,47,0,15000.0,504 Latania Palm Dr,32903,1978,2.0,4.0,2122.0,Square Feet,14810.0,Square Feet,807100.0,28.111067,-80.58138,0.0,45.0,False,0.0,False,False,nan,www.zillow.com/homedetails/504-Latania-Palm-Dr-Indialantic-FL-32903/54616188_zpid/,674990.0,52625.0,4581.0,25.0,22.0,5.99,5.958,6.562,0.0,False,True,False,False,False,False,True,True,True,6113.0,True,7.0688030160226205,9.0,0.8
180,43379789,SINGLE_FAMILY,RECENTLY_SOLD,2023-12-28,48,0,234000.0,169 Alhambra St,32780,1958,1.0,3.0,1168.0,Square Feet,14810.399999999996,Square Feet,235000.0,28.582775,-80.80365,1.0,11.0,False,0.0,False,False,Single Family Residence,www.zillow.com/homedetails/169-Alhambra-St-Titusville-FL-32780/43379789_zpid/,141530.0,7433.0,1791.0,14.0,11.0,6.068,5.904,5.783,0.0,True,False,False,False,False,False,False,False,False,1943.0,False,200.34246575342465,6.0,1.3
181,43393805,SINGLE_FAMILY,RECENTLY_SOLD,2023-12-28,42,0,213000.0,6010 Apple Ave,32927,1981,1.0,3.0,1536.0,Square Feet,10454.4,Square Feet,191800.0,28.463148,-80.791374,70.0,1920.0,False,0.0,True,False,Single Family Residence,www.zillow.com/homedetails/6010-Apple-Ave-Cocoa-FL-32927/43393805_zpid/,229730.0,10889.0,1949.0,11.0,10.0,6.068,5.904,5.783,1.0,True,False,False,False,True,False,False,True,False,3368.0,False,138.671875,5.0,0.6
182,43394540,SINGLE_FAMILY,RECENTLY_SOLD,2023-12-28,48,0,172000.0,4640 Olympic Dr,32927,1980,2.0,3.0,1416.0,Square Feet,10018.8,Square Feet,213900.0,28.47057,-80.796425,2.0,35.0,False,0.0,False,False,Single Family Residence,www.zillow.com/homedetails/4640-Olympic-Dr-Cocoa-FL-32927/43394540_zpid/,219910.0,10889.0,1997.0,10.0,10.0,6.068,5.904,5.783,0.0,True,False,False,False,False,False,False,False,False,3436.0,False,121.46892655367232,5.0,0.4
183,43427865,SINGLE_FAMILY,RECENTLY_SOLD,2023-12-28,48,0,189100.0,1713 Fenway Cir,32955,1967,2.0,3.0,1503.0,Square Feet,8712.0,Square Feet,289200.0,28.329233,-80.748375,0.0,22.0,False,0.0,False,False,nan,www.zillow.com/homedetails/1713-Fenway-Cir-Rockledge-FL-32955/43427865_zpid/,227670.0,13560.0,2138.0,13.0,10.0,6.068,5.904,5.783,0.0,False,False,False,False,False,False,False,False,False,3160.0,False,125.8150365934797,4.0,0.5
184,43432788,SINGLE_FAMILY,RECENTLY_SOLD,2023-12-28,48,0,250000.0,1113 Sunday Dr,32955,1998,2.0,3.0,1577.0,Square Feet,13939.0,Square Feet,374800.0,28.30101,-80.727,0.0,19.0,False,0.0,False,False,nan,www.zillow.com/homedetails/1113-Sunday-Dr-Rockledge-FL-32955/43432788_zpid/,327610.0,13560.0,2378.0,19.0,10.0,6.068,5.904,5.783,0.0,False,True,False,False,False,False,False,False,False,4569.0,False,158.5288522511097,4.0,1.2
185,43435410,SINGLE_FAMILY,RECENTLY_SOLD,2023-12-28,48,0,149000.0,815 Newfound Harbor Dr,32952,1977,2.0,4.0,1765.0,Square Feet,16552.8,Square Feet,463700.0,28.343521,-80.665344,2.0,45.0,False,0.0,False,False,Single Family Residence,www.zillow.com/homedetails/815-Newfound-Harbor-Dr-Merritt-Island-FL-32952/43435410_zpid/,297860.0,39760.0,2855.0,30.0,20.0,6.068,5.904,5.783,2.0,True,False,False,False,True,True,False,False,False,1728.0,False,84.41926345609065,8.0,1.4
186,43468077,SINGLE_FAMILY,RECENTLY_SOLD,2023-12-28,48,0,100100.0,424 Linda Ln,32935,1960,2.0,2.0,1632.0,Square Feet,13068.0,Square Feet,212800.0,28.136791,-80.657936,1.0,33.0,False,0.0,False,False,nan,www.zillow.com/homedetails/424-Linda-Ln-Melbourne-FL-32935/43468077_zpid/,231200.0,19307.0,2149.0,21.0,12.0,5.99,5.958,6.562,0.0,False,False,False,False,False,False,False,False,False,3041.0,False,61.33578431372549,4.0,0.5
187,43471366,SINGLE_FAMILY,RECENTLY_SOLD,2023-12-28,10,0,185000.0,1651 Arthur Ave,32935,1960,2.0,3.0,988.0,Square Feet,7840.8,Square Feet,262600.0,28.123,-80.64716,45.0,1063.0,False,0.0,False,False,Single Family Residence,www.zillow.com/homedetails/1651-Arthur-Ave-Melbourne-FL-32935/43471366_zpid/,185460.0,19307.0,1819.0,100.0,5.0,6.714,6.051,6.953,1.0,True,False,False,False,True,False,False,False,False,564.0,False,187.24696356275302,5.0,0.7
188,43475111,SINGLE_FAMILY,RECENTLY_SOLD,2023-12-28,48,0,150000.0,101 Bluff Ter,32901,1958,2.0,3.0,1296.0,Square Feet,17859.0,Square Feet,150800.0,28.102308,-80.619576,0.0,5.0,False,0.0,False,False,nan,www.zillow.com/homedetails/101-Bluff-Ter-Melbourne-FL-32901/43475111_zpid/,187970.0,19307.0,2184.0,40.0,14.0,6.068,5.904,5.783,0.0,False,False,False,False,False,False,False,False,False,3392.0,False,115.74074074074075,5.0,0.8
189,43481987,SINGLE_FAMILY,RECENTLY_SOLD,2023-12-28,48,0,210500.0,1050 Sheridan Ave NW,32907,1992,2.0,3.0,1128.0,Square Feet,10018.8,Square Feet,229300.0,28.02307,-80.70366,1.0,34.0,False,0.0,False,False,Single Family Residence,www.zillow.com/homedetails/1050-Sheridan-Ave-NW-Palm-Bay-FL-32907/43481987_zpid/,196410.0,53787.0,1787.0,8.0,5.0,6.068,5.904,5.783,2.0,True,False,False,False,True,False,False,False,False,1427.0,False,186.61347517730496,3.0,2.8
190,43498459,SINGLE_FAMILY,RECENTLY_SOLD,2023-12-28,41,0,223000.0,1994 Mark Twain Ln NE,32905,1976,2.0,3.0,2019.0,Square Feet,18295.2,Square Feet,223000.0,28.02043,-80.61409,14.0,360.0,False,0.0,True,False,Single Family Residence,www.zillow.com/homedetails/1994-Mark-Twain-Ln-NE-Palm-Bay-FL-32905/43498459_zpid/,274240.0,53787.0,2298.0,30.0,15.0,6.714,6.051,6.953,2.0,True,False,False,False,True,False,False,False,False,4373.0,False,110.45071817731551,4.0,1.9
191,54608668,SINGLE_FAMILY,RECENTLY_SOLD,2023-12-28,48,0,165000.0,1067 Lee Ave,32955,1970,2.0,3.0,1000.0,Square Feet,7840.0,Square Feet,165900.0,28.315655,-80.74545,0.0,16.0,False,0.0,False,False,nan,www.zillow.com/homedetails/1067-Lee-Ave-Rockledge-FL-32955/54608668_zpid/,160250.0,13560.0,1700.0,15.0,12.0,6.068,5.904,5.783,0.0,False,False,False,False,False,False,False,False,False,834.0,False,165.0,4.0,0.5
192,66682665,SINGLE_FAMILY,PENDING,2023-12-28,22,0,285000.0,749 Fernandina St NW,32907,2004,2.0,3.0,1398.0,Square Feet,10018.8,Square Feet,274200.0,28.012882,-80.69078,442.0,6927.0,False,0.0,False,False,Single Family Residence,www.zillow.com/homedetails/749-Fernandina-St-NW-Palm-Bay-FL-32907/66682665_zpid/,235510.0,53787.0,1859.0,5.0,5.0,6.714,6.051,6.953,2.0,True,False,False,False,True,False,False,False,False,694.0,False,203.862660944206,6.0,1.1
193,43372360,SINGLE_FAMILY,RECENTLY_SOLD,2023-12-27,49,0,120000.0,1760 Cowan Dr,32796,1961,2.0,3.0,1034.0,Square Feet,9147.0,Square Feet,194500.0,28.645054,-80.84257,0.0,6.0,False,0.0,False,False,nan,www.zillow.com/homedetails/1760-Cowan-Dr-Titusville-FL-32796/43372360_zpid/,144100.0,7433.0,1878.0,22.0,19.0,5.99,5.958,6.562,0.0,False,False,False,False,False,False,False,False,False,2338.0,False,116.0541586073501,5.0,1.4
194,43372377,SINGLE_FAMILY,RECENTLY_SOLD,2023-12-27,49,0,220000.0,1795 Cowan Dr,32796,1961,1.0,3.0,864.0,Square Feet,9147.6,Square Feet,221200.0,28.645681,-80.84207,1.0,16.0,False,0.0,False,False,Single Family Residence,www.zillow.com/homedetails/1795-Cowan-Dr-Titusville-FL-32796/43372377_zpid/,118250.0,7433.0,1300.0,19.0,15.0,6.068,5.904,5.783,0.0,True,False,False,False,False,False,False,False,False,878.0,False,254.62962962962962,5.0,1.5
195,43407202,SINGLE_FAMILY,RECENTLY_SOLD,2023-12-27,4,0,219900.0,2515 Stanford Dr,32926,1965,2.0,3.0,1328.0,Square Feet,8276.4,Square Feet,326600.0,28.390812,-80.75896,28.0,490.0,False,0.0,False,False,Single Family Residence,www.zillow.com/homedetails/2515-Stanford-Dr-Cocoa-FL-32926/43407202_zpid/,150300.0,10889.0,1900.0,16.0,5.0,6.714,6.051,6.953,0.0,True,False,False,False,False,False,False,False,False,855.0,False,165.58734939759037,4.0,0.7
196,43468718,SINGLE_FAMILY,RECENTLY_SOLD,2023-12-27,49,0,140000.0,2184 Shelby Dr,32935,1960,1.0,2.0,920.0,Square Feet,6534.0,Square Feet,188700.0,28.13106,-80.65722,0.0,29.0,False,0.0,False,False,nan,www.zillow.com/homedetails/2184-Shelby-Dr-Melbourne-FL-32935/43468718_zpid/,156340.0,19307.0,1700.0,9.0,12.0,6.068,5.904,5.783,0.0,False,False,False,False,False,False,False,False,False,256.0,False,152.17391304347825,4.0,0.6
197,43486012,SINGLE_FAMILY,RECENTLY_SOLD,2023-12-27,49,0,140000.0,113 Americana Blvd NW,32907,1980,2.0,3.0,1025.0,Square Feet,10454.4,Square Feet,182100.0,28.011328,-80.67269,0.0,29.0,False,0.0,False,False,Single Family Residence,www.zillow.com/homedetails/113-Americana-Blvd-NW-Palm-Bay-FL-32907/43486012_zpid/,174620.0,53787.0,1846.0,20.0,13.0,6.068,5.904,5.783,1.0,True,False,False,False,True,False,False,True,False,1808.0,False,136.58536585365854,6.0,0.1
198,43501472,SINGLE_FAMILY,RECENTLY_SOLD,2023-12-27,49,0,250000.0,517 Audubon Ave NE,32907,1979,2.0,3.0,1456.0,Square Feet,20908.0,Square Feet,251300.0,28.010109,-80.659836,0.0,15.0,False,0.0,False,False,nan,www.zillow.com/homedetails/517-Audubon-Ave-NE-Palm-Bay-FL-32907/43501472_zpid/,250550.0,53787.0,2234.0,14.0,15.0,6.068,5.904,5.783,0.0,False,False,False,False,False,False,False,False,False,653.0,False,171.7032967032967,5.0,1.3
199,43502043,SINGLE_FAMILY,RECENTLY_SOLD,2023-12-27,41,0,250000.0,401 Almansa St NE,32907,1981,2.0,4.0,1638.0,Square Feet,11761.2,Square Feet,301500.0,28.004236,-80.66262,23.0,282.0,False,0.0,False,False,Single Family Residence,www.zillow.com/homedetails/401-Almansa-St-NE-Palm-Bay-FL-32907/43502043_zpid/,233640.0,53787.0,1999.0,10.0,10.0,6.714,6.051,6.953,2.0,True,False,False,False,True,False,False,False,False,4411.0,False,152.62515262515262,6.0,0.9
200,66693734,SINGLE_FAMILY,RECENTLY_SOLD,2023-12-27,49,0,32200.0,492 Melanie Cir,32901,2004,2.0,3.0,1911.0,Square Feet,7840.0,Square Feet,329300.0,28.046642,-80.62962,0.0,7.0,False,0.0,False,False,nan,www.zillow.com/homedetails/492-Melanie-Cir-Melbourne-FL-32901/66693734_zpid/,293080.0,19307.0,2209.0,11.0,6.0,5.99,5.958,6.562,0.0,False,True,False,False,False,False,False,False,False,1418.0,False,16.84981684981685,3.0,1.1
201,153630952,SINGLE_FAMILY,RECENTLY_SOLD,2023-12-27,49,0,232000.0,1313 Stetson Dr S,32922,1963,1.0,3.0,1081.0,Square Feet,12631.999999999998,Square Feet,233200.0,28.373928,-80.763756,0.0,14.0,False,0.0,False,False,nan,www.zillow.com/homedetails/1313-Stetson-Dr-S-Cocoa-FL-32922/153630952_zpid/,141030.0,10889.0,1935.0,13.0,12.0,6.068,5.904,5.783,0.0,False,False,False,False,False,False,False,False,False,2939.0,False,214.61609620721555,4.0,1.1
202,2058422983,SINGLE_FAMILY,RECENTLY_SOLD,2023-12-27,49,0,232000.0,1313 S Stetson Dr,32922,1963,2.0,3.0,1081.0,Square Feet,12632.4,Square Feet,232800.0,28.373932,-80.763756,0.0,12.0,False,0.0,False,False,Single Family Residence,www.zillow.com/homedetails/1313-S-Stetson-Dr-Cocoa-FL-32922/2058422983_zpid/,278225.0,10889.0,1800.0,8.0,6.0,6.068,5.904,5.783,0.0,False,False,False,False,False,False,False,False,False,1917.0,False,214.61609620721555,4.0,1.1
203,43372679,SINGLE_FAMILY,RECENTLY_SOLD,2023-12-26,50,0,230000.0,3225 Barbara Ln,32796,1967,2.0,4.0,1248.0,Square Feet,9147.6,Square Feet,231300.0,28.645147,-80.8449,0.0,18.0,False,0.0,False,False,Single Family Residence,www.zillow.com/homedetails/3225-Barbara-Ln-Titusville-FL-32796/43372679_zpid/,146230.0,7433.0,1813.0,8.0,6.0,6.068,5.904,5.783,0.0,True,False,False,False,False,False,False,False,False,538.0,False,184.2948717948718,5.0,1.4
204,43384669,SINGLE_FAMILY,RECENTLY_SOLD,2023-12-25,51,0,245000.0,330 Willow St,32780,1962,2.0,3.0,1430.0,Square Feet,18730.8,Square Feet,245900.0,28.558632,-80.804016,0.0,9.0,False,0.0,False,False,Single Family Residence,www.zillow.com/homedetails/330-Willow-St-Titusville-FL-32780/43384669_zpid/,186150.0,7433.0,1900.0,16.0,8.0,6.068,5.904,5.783,0.0,False,False,False,False,False,False,False,False,False,2912.0,False,171.32867132867133,6.0,1.2
205,43370877,SINGLE_FAMILY,RECENTLY_SOLD,2023-12-22,54,0,125000.0,2957 Hartman Ln,32754,1958,1.0,3.0,768.0,Square Feet,4791.6,Square Feet,125500.0,28.67988,-80.85487,0.0,16.0,False,0.0,False,False,Single Family Residence,www.zillow.com/homedetails/2957-Hartman-Ln-Mims-FL-32754/43370877_zpid/,96880.0,25911.0,1229.0,15.0,15.0,5.99,5.958,6.562,0.0,True,False,False,False,False,False,False,False,False,594.0,False,162.76041666666666,5.0,1.0
206,43376373,SINGLE_FAMILY,RECENTLY_SOLD,2023-12-22,54,0,152000.0,305 Elaine Dr,32796,1955,2.0,3.0,1085.0,Square Feet,6969.6,Square Feet,159800.0,28.618156,-80.81356,2.0,22.0,False,0.0,False,False,Single Family Residence,www.zillow.com/homedetails/305-Elaine-Dr-Titusville-FL-32796/43376373_zpid/,142580.0,7433.0,1949.0,22.0,15.0,6.068,5.904,5.783,1.0,True,False,False,False,True,False,False,True,False,1982.0,False,140.0921658986175,5.0,2.5
207,43411098,SINGLE_FAMILY,RECENTLY_SOLD,2023-12-22,54,0,170000.0,355 Hunt Dr,32953,1961,2.0,3.0,1490.0,Square Feet,16116.999999999998,Square Feet,266700.0,28.367998,-80.7074,0.0,9.0,False,0.0,False,False,nan,www.zillow.com/homedetails/355-Hunt-Dr-Merritt-Island-FL-32953/43411098_zpid/,227740.0,39760.0,2299.0,22.0,14.0,6.068,5.904,5.783,0.0,False,False,False,False,False,False,False,True,True,3277.0,True,114.09395973154362,4.0,0.9
208,43435829,SINGLE_FAMILY,RECENTLY_SOLD,2023-12-22,54,0,250000.0,1835 Via Roma,32952,1967,2.0,3.0,984.0,Square Feet,7841.0,Square Feet,250900.0,28.326412,-80.66199,0.0,27.0,False,0.0,False,False,Single Family Residence,www.zillow.com/homedetails/1835-Via-Roma-Merritt-Island-FL-32952/43435829_zpid/,178640.0,39760.0,1889.0,19.0,14.0,6.068,5.904,5.783,1.0,False,False,True,False,True,False,False,False,False,682.0,False,254.0650406504065,8.0,1.5
209,43473015,SINGLE_FAMILY,RECENTLY_SOLD,2023-12-22,54,0,222706.0,833 Brookside Dr,32903,1972,2.0,4.0,3686.0,Square Feet,17859.0,Square Feet,859100.0,28.121092,-80.59001,0.0,23.0,False,0.0,False,False,nan,www.zillow.com/homedetails/833-Brookside-Dr-Melbourne-FL-32903/43473015_zpid/,783350.0,52625.0,4410.0,24.0,20.0,6.068,5.904,5.783,0.0,False,False,False,False,False,False,False,False,False,13276.0,False,60.41942485078676,9.0,1.6
210,43424880,SINGLE_FAMILY,RECENTLY_SOLD,2023-12-21,55,0,118000.0,1276 Emma Dr,32952,1954,1.0,3.0,1485.0,Square Feet,7405.0,Square Feet,150300.0,28.335045,-80.69133,0.0,7.0,False,0.0,False,False,nan,www.zillow.com/homedetails/1276-Emma-Dr-Merritt-Island-FL-32952/43424880_zpid/,180170.0,39760.0,2129.0,14.0,13.0,5.99,5.958,6.562,0.0,False,False,False,False,False,False,False,False,False,1002.0,False,79.46127946127946,8.0,0.4
211,43487791,SINGLE_FAMILY,RECENTLY_SOLD,2023-12-21,55,0,214900.0,2306 Hyde Pkwy,32901,1964,2.0,3.0,1368.0,Square Feet,12196.799999999996,Square Feet,228500.0,28.074242,-80.62252,0.0,101.0,False,0.0,False,False,Single Family Residence,www.zillow.com/homedetails/2306-Hyde-Pkwy-Melbourne-FL-32901/43487791_zpid/,138580.0,19307.0,1912.0,13.0,15.0,6.068,5.904,5.783,0.0,True,False,False,False,False,False,False,False,False,2529.0,False,157.0906432748538,5.0,0.9
212,43495586,SINGLE_FAMILY,RECENTLY_SOLD,2023-12-21,55,0,185000.0,1576 Magnolia St NE,32905,1979,2.0,3.0,1408.0,Square Feet,7405.2,Square Feet,186200.0,28.037325,-80.58926,3.0,83.0,False,0.0,False,False,Single Family Residence,www.zillow.com/homedetails/1576-Magnolia-St-NE-Palm-Bay-FL-32905/43495586_zpid/,102310.0,53787.0,1849.0,8.0,8.0,6.068,5.904,5.783,0.0,True,False,False,False,False,False,False,False,False,1892.0,False,131.39204545454547,3.0,1.9
213,43496964,SINGLE_FAMILY,RECENTLY_SOLD,2023-12-21,55,0,235000.0,824 Cadez St NE,32905,1967,1.0,2.0,1247.0,Square Feet,7405.2,Square Feet,235800.0,28.016304,-80.57934,0.0,11.0,False,0.0,False,False,Single Family Residence,www.zillow.com/homedetails/824-Cadez-St-NE-Palm-Bay-FL-32905/43496964_zpid/,213040.0,53787.0,1719.0,10.0,5.0,6.068,5.904,5.783,0.0,True,False,False,False,False,False,False,False,False,3407.0,False,188.4522854851644,3.0,3.2
214,50124900,SINGLE_FAMILY,RECENTLY_SOLD,2023-12-21,1,0,140000.0,115 Primrose Ln,32901,1956,1.0,2.0,932.0,Square Feet,7405.2,Square Feet,140000.0,28.097849,-80.6172,2.0,145.0,False,0.0,False,False,Single Family Residence,www.zillow.com/homedetails/115-Primrose-Ln-Melbourne-FL-32901/50124900_zpid/,128200.0,19307.0,1734.0,100.0,5.0,6.714,6.051,6.953,0.0,True,False,False,False,False,False,False,False,False,1941.0,False,150.21459227467813,5.0,0.5
215,71023372,SINGLE_FAMILY,RECENTLY_SOLD,2023-12-21,55,0,230000.0,475 Borraclough Ave NW,32907,1980,2.0,3.0,1382.0,Square Feet,20037.599999999995,Square Feet,230800.0,28.009151,-80.68585,1.0,36.0,False,0.0,False,False,Single Family Residence,www.zillow.com/homedetails/475-Borraclough-Ave-NW-Palm-Bay-FL-32907/71023372_zpid/,267790.0,53787.0,2199.0,14.0,14.0,6.068,5.904,5.783,0.0,True,False,False,False,False,False,False,False,False,2142.0,False,166.42547033285095,6.0,0.8
216,43374073,SINGLE_FAMILY,RECENTLY_SOLD,2023-12-20,56,0,150000.0,3750 W Powder Horn Rd,32796,1982,2.0,2.0,1294.0,Square Feet,10890.0,Square Feet,252400.0,28.63795,-80.85552,0.0,9.0,False,0.0,False,False,nan,www.zillow.com/homedetails/3750-W-Powder-Horn-Rd-Titusville-FL-32796/43374073_zpid/,190150.0,7433.0,1749.0,5.0,9.0,6.068,5.904,5.783,0.0,False,False,False,False,False,False,False,False,False,3166.0,False,115.91962905718702,3.0,0.3
217,43385049,SINGLE_FAMILY,RECENTLY_SOLD,2023-12-20,56,0,249000.0,600 Jana Dr,32780,1964,2.0,3.0,1558.0,Square Feet,7405.2,Square Feet,250600.0,28.55223,-80.807945,0.0,15.0,False,0.0,False,False,Single Family Residence,www.zillow.com/homedetails/600-Jana-Dr-Titusville-FL-32780/43385049_zpid/,176010.0,7433.0,1914.0,10.0,10.0,6.068,5.904,5.783,1.0,True,False,False,False,True,True,False,False,False,860.0,False,159.82028241335044,4.0,1.4
218,43395602,SINGLE_FAMILY,RECENTLY_SOLD,2023-12-20,56,1,105000.0,6260 Marcy St,32927,1981,2.0,3.0,1530.0,Square Feet,10018.0,Square Feet,105700.0,28.46849,-80.78748,0.0,37.0,False,0.0,False,False,nan,www.zillow.com/homedetails/6260-Marcy-St-Cocoa-FL-32927/43395602_zpid/,186130.0,10889.0,1264.0,12.0,9.0,5.99,5.958,6.562,0.0,False,True,False,False,False,False,False,False,False,2702.0,False,68.62745098039215,5.0,0.8
219,43468602,SINGLE_FAMILY,RECENTLY_SOLD,2023-12-20,56,0,170000.0,1497 Breeze Ln,32935,1964,2.0,2.0,960.0,Square Feet,7405.0,Square Feet,238300.0,28.131264,-80.6676,0.0,10.0,False,0.0,False,False,nan,www.zillow.com/homedetails/1497-Breeze-Ln-Melbourne-FL-32935/43468602_zpid/,186450.0,19307.0,1734.0,9.0,12.0,6.068,5.904,5.783,0.0,False,False,False,False,False,False,False,False,False,2510.0,False,177.08333333333334,4.0,1.1
220,43470815,SINGLE_FAMILY,RECENTLY_SOLD,2023-12-20,35,0,215000.0,501 Buckingham Ave,32935,1967,2.0,3.0,1477.0,Square Feet,8276.4,Square Feet,292900.0,28.114914,-80.65702,58.0,721.0,False,0.0,False,False,Single Family Residence,www.zillow.com/homedetails/501-Buckingham-Ave-Melbourne-FL-32935/43470815_zpid/,198790.0,19307.0,2100.0,9.0,6.0,6.714,6.051,6.953,0.0,True,False,False,False,False,False,False,False,False,3266.0,False,145.56533513879486,6.0,1.4
221,43485077,SINGLE_FAMILY,RECENTLY_SOLD,2023-12-20,56,0,210000.0,1562 Holcomb St NW,32907,1987,1.0,2.0,850.0,Square Feet,10454.4,Square Feet,210700.0,28.009958,-80.716896,0.0,10.0,False,0.0,False,False,Single Family Residence,www.zillow.com/homedetails/1562-Holcomb-St-NW-Palm-Bay-FL-32907/43485077_zpid/,163830.0,53787.0,1448.0,13.0,7.0,6.068,5.904,5.783,1.0,True,False,False,False,True,False,False,True,False,1008.0,False,247.05882352941177,6.0,1.7
222,43372302,SINGLE_FAMILY,RECENTLY_SOLD,2023-12-19,57,0,126500.0,3372 Oklahoma St,32796,1958,1.0,3.0,1531.0,Square Feet,11325.6,Square Feet,119600.0,28.651249,-80.84412,0.0,7.0,False,0.0,False,False,Single Family Residence,www.zillow.com/homedetails/3372-Oklahoma-St-Titusville-FL-32796/43372302_zpid/,144730.0,7433.0,1949.0,13.0,10.0,6.068,5.904,5.783,0.0,True,False,False,False,False,False,False,True,False,2164.0,False,82.62573481384716,5.0,1.2
223,43477552,SINGLE_FAMILY,RECENTLY_SOLD,2023-12-19,57,1,166000.0,2250 Wilcox St,32904,1961,2.0,3.0,1172.0,Square Feet,16116.999999999998,Square Feet,167000.0,28.073935,-80.68433,0.0,15.0,False,0.0,False,False,nan,www.zillow.com/homedetails/2250-Wilcox-St-Melbourne-FL-32904/43477552_zpid/,154840.0,19307.0,1834.0,22.0,5.0,6.068,5.904,5.783,0.0,False,False,False,False,False,False,False,False,False,921.0,False,141.63822525597269,5.0,1.2
